{
  "shops": [
    {
      "id": 700,
      "name": "17th Street Surf Shop",
      "address": "1612 Pacific Ave., Virginia Beach, VA 23451",
      "lat": 36.844773,
      "lng": -75.975871,
      "isIndependent": true,
      "website": "http://17thst.com",
      "phone": "(757) 422-6105"
    },
    {
      "id": 711,
      "name": "17th Street Surf Shop",
      "address": "1224 Greenbrier Pkwy #210, Chesapeake, VA 23320",
      "lat": 36.769344,
      "lng": -76.23116,
      "isIndependent": true,
      "website": "http://www.17thst.com",
      "phone": "(757) 436-2961"
    },
    {
      "id": 1672,
      "name": "17th Street Surf Shop",
      "address": "414 College Rd., Wilmington, NC 28403",
      "lat": 34.232986,
      "lng": -77.875976,
      "isIndependent": true,
      "website": "http://17thst.com",
      "phone": "(910) 799-7811"
    },
    {
      "id": 2100,
      "name": "21:12 Skateboarding",
      "address": "110 E Center St. Suite 3, Kingsport, TN 37660",
      "lat": 36.547268,
      "lng": -82.559047,
      "isIndependent": true,
      "phone": "(423) 429-7663"
    },
    {
      "id": 1944,
      "name": "21st.Century Skateboards Diy",
      "address": "Georgetown Rd., Tilton, IL 61833",
      "lat": 40.097797,
      "lng": -87.636164,
      "isIndependent": true,
      "phone": "(217) 597-0129"
    },
    {
      "id": 1572,
      "name": "2211 The Ultimate Play Zone",
      "address": "3541 McGehee Rd., Montgomery, AL 36111",
      "lat": 32.330185,
      "lng": -86.242445,
      "isIndependent": true,
      "website": "http://2211ultimateplayzone.com",
      "phone": "(334) 593-7180"
    },
    {
      "id": 2119,
      "name": "254 Kascade",
      "address": "4400 S Fort Hood St., Killeen, TX 76542",
      "lat": 31.081354,
      "lng": -97.754488,
      "isIndependent": true,
      "website": "https://www.facebook.com/254-Kascade-474647526440856/",
      "phone": "(254) 368-4251"
    },
    {
      "id": 1876,
      "name": "2econd Life",
      "address": "641 Nord Ave. UNIT B, Chico, CA 95926",
      "lat": 39.728718,
      "lng": -121.855478,
      "isIndependent": true
    },
    {
      "id": 719,
      "name": "2nd Time Around Sports Cranston",
      "address": "453 Atwood Ave., Cranston, RI 02920",
      "lat": 41.788307,
      "lng": -71.471965,
      "isIndependent": true,
      "website": "http://www.2ndtimearoundsports.com",
      "phone": "(401) 944-9380"
    },
    {
      "id": 400,
      "name": "2nd Time Sports",
      "address": "11295 Washington St. Ste C, Northglenn, CO 80233",
      "lat": 39.90134,
      "lng": -104.97813,
      "isIndependent": true,
      "website": "http://2ndtimesportscolo.com",
      "phone": "(720) 245-7295"
    },
    {
      "id": 940,
      "name": "2RST",
      "address": "1511 Plainfield Ave. NE suite b, Grand Rapids, MI 49505",
      "lat": 42.989845,
      "lng": -85.663919,
      "isIndependent": true,
      "website": "https://2rstlife.com"
    },
    {
      "id": 666,
      "name": "2Swift Boards",
      "address": "17000 St. Clair Ave., Cleveland, OH 44110",
      "lat": 41.562776,
      "lng": -81.559646,
      "isIndependent": true,
      "website": "https://www.2swiftboards.com"
    },
    {
      "id": 392,
      "name": "303 Boards",
      "address": "1338 E Colfax Ave., Denver, CO 80218",
      "lat": 39.739883,
      "lng": -104.970006,
      "isIndependent": true,
      "website": "http://www.303boards.com",
      "phone": "(303) 860-1303"
    },
    {
      "id": 401,
      "name": "303 Boards The Annex",
      "address": "1288 S Broadway, Denver, CO 80210",
      "lat": 39.693555,
      "lng": -104.987124,
      "isIndependent": true,
      "website": "http://www.303boards.com",
      "phone": "(303) 386-4759"
    },
    {
      "id": 403,
      "name": "303 Boards The Hill",
      "address": "1138 13th St., Boulder, CO 80302",
      "lat": 40.008143,
      "lng": -105.276068,
      "isIndependent": true,
      "website": "http://www.303boards.com",
      "phone": "(720) 667-3695"
    },
    {
      "id": 39,
      "name": "3043 Boardshop",
      "address": "3043 Tweedy Blvd., South Gate, CA 90280",
      "lat": 33.945642,
      "lng": -118.217243,
      "isIndependent": true,
      "phone": "(323) 472-7133"
    },
    {
      "id": 302,
      "name": "35th Avenue Skateboards & Snowboards",
      "address": "28717 Pacific Hwy S, Federal Way, WA 98003",
      "lat": 47.343861,
      "lng": -122.312689,
      "isIndependent": true,
      "website": "http://www.35thave.com",
      "phone": "(253) 839-5202"
    },
    {
      "id": 297,
      "name": "35th North Skate Shop",
      "address": "1100 E Pike St., Seattle, WA 98122",
      "lat": 47.614231,
      "lng": -122.317964,
      "isIndependent": true,
      "website": "http://www.35thnorth.com",
      "phone": "(206) 320-1252"
    },
    {
      "id": 426,
      "name": "39 Castles Sneakers & Style",
      "address": "1328 Washington Ave., St. Louis, MO 63103",
      "lat": 38.632177,
      "lng": -90.199321,
      "isIndependent": true,
      "website": "https://39castles.com"
    },
    {
      "id": 2161,
      "name": "3AMNEWYORK",
      "address": "106 W 14th St., Elmira, NY 14903",
      "lat": 42.128911,
      "lng": -76.825529,
      "isIndependent": true,
      "website": "https://3amskate.com",
      "phone": "(607) 367-0730"
    },
    {
      "id": 43,
      "name": "3Deep",
      "address": "208 S Ave. 20, Los Angeles, CA 90031",
      "lat": 34.072376,
      "lng": -118.219841,
      "isIndependent": true
    },
    {
      "id": 327,
      "name": "3rd Lair Skatepark and Skate Shop",
      "address": "850 Florida Ave. S, Golden Valley, MN 55426",
      "lat": 44.973069,
      "lng": -93.363412,
      "isIndependent": true,
      "website": "https://www.3rdlair.com",
      "phone": "(763) 797-5283"
    },
    {
      "id": 445,
      "name": "3rd Street Skate Supply",
      "address": "110 3rd St. SW, Winter Haven, FL 33880",
      "lat": 28.021135,
      "lng": -81.730411,
      "isIndependent": true,
      "website": "https://www.facebook.com/3rdstskatesupply/",
      "phone": "(863) 268-2556"
    },
    {
      "id": 2164,
      "name": "40beezkickz.club",
      "address": "248 Chenango St., Binghamton, NY 13901",
      "lat": 42.105857,
      "lng": -75.905774,
      "isIndependent": true,
      "phone": "(607) 203-1024"
    },
    {
      "id": 660,
      "name": "440 Kicks",
      "address": "1224 Huron Rd. E Floor #1, Cleveland, OH 44115",
      "lat": 41.500084,
      "lng": -81.682665,
      "isIndependent": true,
      "website": "https://www.440kicks.com",
      "phone": "(440) 577-6564"
    },
    {
      "id": 739,
      "name": "4Seasons Skate Park of Milwaukee",
      "address": "200 N 25th St., Milwaukee, WI 53233",
      "lat": 43.033108,
      "lng": -87.942508,
      "isIndependent": true,
      "phone": "(414) 933-7275"
    },
    {
      "id": 1808,
      "name": "5 Finger Longboards",
      "address": "3728 S 100 W, Logan, UT 84321",
      "lat": 41.665091,
      "lng": -111.835689,
      "isIndependent": true,
      "phone": "(801) 867-7088"
    },
    {
      "id": 1688,
      "name": "50 South Surf Shop",
      "address": "306 S Topsail Dr., Surf City, NC 28445",
      "lat": 34.424447,
      "lng": -77.548416,
      "isIndependent": true,
      "website": "http://www.surf50south.com",
      "phone": "(910) 328-7911"
    },
    {
      "id": 1778,
      "name": "505 SHREDZ SKATE SHOP LLC",
      "address": "211 W Main St., Farmington, NM 87401",
      "lat": 36.728781,
      "lng": -108.207164,
      "isIndependent": true,
      "website": "http://505shredzskateshop.com",
      "phone": "(505) 210-3420"
    },
    {
      "id": 1285,
      "name": "5050 Bike & Skate",
      "address": "1485 W Hill Field Rd. #205, Layton, UT 84041",
      "lat": 41.069691,
      "lng": -111.991565,
      "isIndependent": true,
      "website": "http://www.5050bikeandskate.com",
      "phone": "(801) 546-2691"
    },
    {
      "id": 241,
      "name": "510 Skateboarding",
      "address": "2506 Telegraph Ave., Berkeley, CA 94704",
      "lat": 37.864876,
      "lng": -122.258753,
      "isIndependent": true,
      "website": "http://www.510skateboarding.com",
      "phone": "(510) 843-1863"
    },
    {
      "id": 459,
      "name": "5150 Skate Shop",
      "address": "1158-B River Hwy, Mooresville, NC 28117",
      "lat": 35.60463,
      "lng": -80.9099,
      "isIndependent": true,
      "website": "https://5150skateshop.com",
      "phone": "(704) 314-5545"
    },
    {
      "id": 1041,
      "name": "518 SK8 and HOBBY",
      "address": "Located next to Sterling Optical, 22 Clifton Country Rd. #46, Clifton Park, NY 12065",
      "lat": 42.859508,
      "lng": -73.780309,
      "isIndependent": true,
      "website": "http://www.518sk8andhobby.com",
      "phone": "(518) 280-6426"
    },
    {
      "id": 451,
      "name": "518 underground",
      "address": "561 W Eau Gallie Blvd., Melbourne, FL 32935",
      "lat": 28.130238,
      "lng": -80.627211,
      "isIndependent": true,
      "phone": "(321) 655-9074"
    },
    {
      "id": 1717,
      "name": "540 COLLECTIVE",
      "address": "2 W Main St., Pulaski, VA 24301",
      "lat": 37.04793,
      "lng": -80.780103,
      "isIndependent": true,
      "phone": "(540) 835-3622"
    },
    {
      "id": 1272,
      "name": "608 Skate",
      "address": "917 Williamson St., Madison, WI 53703",
      "lat": 43.079804,
      "lng": -89.368966,
      "isIndependent": true,
      "website": "https://608skate.com"
    },
    {
      "id": 1920,
      "name": "701 Cycle & Sport",
      "address": "411 Fraine Barracks Rd., Bismarck, ND 58504",
      "lat": 46.809494,
      "lng": -100.814496,
      "isIndependent": true,
      "website": "http://www.701cycleandsport.com",
      "phone": "(701) 221-9833"
    },
    {
      "id": 528,
      "name": "707 ChopA SK8",
      "address": "1608 Sonoma Blvd., Vallejo, CA 94590",
      "lat": 38.100455,
      "lng": -122.254832,
      "isIndependent": true,
      "website": "http://707chopask8.bigcartel.com",
      "phone": "(707) 210-5261"
    },
    {
      "id": 1154,
      "name": "77 Surf & Skate",
      "address": "2100 Padre Blvd. Unit 4, South Padre Island, TX 78597",
      "lat": 26.100029,
      "lng": -97.165958,
      "isIndependent": true,
      "website": "http://www.77surf.com",
      "phone": "(956) 433-9770"
    },
    {
      "id": 1365,
      "name": "7B Boardshop",
      "address": "121 N 1st Ave., Sandpoint, ID 83864",
      "lat": 48.273909,
      "lng": -116.548177,
      "isIndependent": true,
      "website": "https://www.7bboardshop.com",
      "phone": "(208) 263-0707"
    },
    {
      "id": 1890,
      "name": "805 Boardshop",
      "address": "6100 El Camino Real, Atascadero, CA 93422",
      "lat": 35.488781,
      "lng": -120.669944,
      "isIndependent": true,
      "website": "http://www.805boardshop.com",
      "phone": "(805) 464-2545"
    },
    {
      "id": 1099,
      "name": "805 Skateshop",
      "address": "2235 First St. #120, Simi Valley, CA 93065",
      "lat": 34.275765,
      "lng": -118.779789,
      "isIndependent": true,
      "website": "https://805skateshop.com",
      "phone": "(805) 630-8734"
    },
    {
      "id": 1063,
      "name": "818 Skate Shop",
      "address": "17015 Chatsworth St., Granada Hills, CA 91344",
      "lat": 34.264928,
      "lng": -118.502846,
      "isIndependent": true,
      "website": "http://818skate.com",
      "phone": "(818) 363-3675"
    },
    {
      "id": 244,
      "name": "8Ball Oakland",
      "address": "329 15th St., Oakland, CA 94612",
      "lat": 37.804007,
      "lng": -122.267729,
      "isIndependent": true,
      "phone": "(510) 817-4855"
    },
    {
      "id": 1078,
      "name": "96' Kickz",
      "address": "7600 Kingston Pike #1492, Knoxville, TN 37919",
      "lat": 35.92364,
      "lng": -84.03694,
      "isIndependent": true,
      "website": "https://www.instagram.com/96.kickz/?hl=en",
      "phone": "(865) 214-6997"
    },
    {
      "id": 1386,
      "name": "99 Plus Outlet & Smokeshop",
      "address": "1620 Crows Landing Rd., Modesto, CA 95358",
      "lat": 37.606063,
      "lng": -120.993144,
      "isIndependent": true,
      "phone": "(209) 248-7052"
    },
    {
      "id": 80,
      "name": "A Collector’s Closet (formerly Incite)",
      "address": "6121 W Park Blvd. Suite C107, Plano, TX 75093",
      "lat": 33.031894,
      "lng": -96.831641,
      "isIndependent": true
    },
    {
      "id": 1403,
      "name": "A Skaters Dream",
      "address": "2205 Jolly Rd. Ste E1, Okemos, MI 48864",
      "lat": 42.682265,
      "lng": -84.430687,
      "isIndependent": true,
      "phone": "(989) 627-7240"
    },
    {
      "id": 2120,
      "name": "aaa102designs",
      "address": "2100 S W S Young Dr., Killeen, TX 76543",
      "lat": 31.093598,
      "lng": -97.71811,
      "isIndependent": true,
      "phone": "(254) 300-8750"
    },
    {
      "id": 1166,
      "name": "Above Board Skatepark and Skate Shop",
      "address": "2616 Greengate Dr., Greensboro, NC 27406",
      "lat": 36.02411,
      "lng": -79.799193,
      "isIndependent": true,
      "website": "https://www.aboveboardskate.com",
      "phone": "(336) 333-5800"
    },
    {
      "id": 1120,
      "name": "Accelerate bmx & scooter shop",
      "address": "Paseo de Los Sueños 906 Fraccionamiento Paseo de las Torres, 32574 Juárez, Chih., Mexico",
      "lat": 31.621225,
      "lng": -106.382455,
      "isIndependent": true,
      "phone": "(656) 225-8099"
    },
    {
      "id": 1744,
      "name": "Actionball Boardsports",
      "address": "210 Grand Ave., Laramie, WY 82070",
      "lat": 41.31093,
      "lng": -105.594401,
      "isIndependent": true
    },
    {
      "id": 1562,
      "name": "Adrenaline",
      "address": "328 Fairhope Ave., Fairhope, AL 36532",
      "lat": 30.522801,
      "lng": -87.903912,
      "isIndependent": true,
      "phone": "(251) 990-0699"
    },
    {
      "id": 160,
      "name": "Adventure Sports",
      "address": "3600 Grand Ave., Coconut Grove, FL 33133",
      "lat": 25.727536,
      "lng": -80.251255,
      "isIndependent": true,
      "website": "http://www.adventuresportsusa.com",
      "phone": "(305) 591-3559"
    },
    {
      "id": 320,
      "name": "After Hours Skateshop",
      "address": "251 Snelling Ave. S, St. Paul, MN 55105",
      "lat": 44.933868,
      "lng": -93.167391,
      "isIndependent": true,
      "website": "http://afterhoursskateshop.com",
      "phone": "(651) 340-8535"
    },
    {
      "id": 845,
      "name": "Airborne X Harvey",
      "address": "901 Manhattan Blvd. suite 901A, Harvey, LA 70058",
      "lat": 29.902385,
      "lng": -90.062926,
      "isIndependent": true,
      "website": "https://airbornex.com/locations/harvey",
      "phone": "(504) 209-7701"
    },
    {
      "id": 1255,
      "name": "Al's Sporting Goods",
      "address": "1301 N Milwaukee St., Boise, ID 83704",
      "lat": 43.616479,
      "lng": -116.285869,
      "isIndependent": true,
      "website": "http://www.als.com",
      "phone": "(435) 210-5356"
    },
    {
      "id": 1333,
      "name": "Al's Sporting Goods",
      "address": "643 E University Pkwy, Orem, UT 84097",
      "lat": 40.275973,
      "lng": -111.678632,
      "isIndependent": true,
      "website": "http://www.als.com",
      "phone": "(435) 210-5356"
    },
    {
      "id": 1803,
      "name": "Al's Sporting Goods",
      "address": "1770 Red Cliffs Dr. Suite 127, St. George, UT 84790",
      "lat": 37.11522,
      "lng": -113.54465,
      "isIndependent": true,
      "website": "http://www.als.com",
      "phone": "(435) 210-5356"
    },
    {
      "id": 1809,
      "name": "Al's Sporting Goods",
      "address": "1075 Main St. Ste 120, Logan, UT 84341",
      "lat": 41.751622,
      "lng": -111.835927,
      "isIndependent": true,
      "website": "http://www.als.com",
      "phone": "(435) 210-5356"
    },
    {
      "id": 1745,
      "name": "All Terrain Sports",
      "address": "412 Grand Ave., Laramie, WY 82070",
      "lat": 41.310709,
      "lng": -105.591544,
      "isIndependent": true,
      "website": "https://allterrainsports.com",
      "phone": "(307) 721-8036"
    },
    {
      "id": 766,
      "name": "ALL WET SPORTS",
      "address": "8550 Beach Blvd., Jacksonville, FL 32216",
      "lat": 30.286868,
      "lng": -81.569435,
      "isIndependent": true,
      "website": "http://allwetsports.net",
      "phone": "(904) 646-9887"
    },
    {
      "id": 304,
      "name": "All-A-Board Boardshop",
      "address": "1107 River Rd., Puyallup, WA 98371",
      "lat": 47.202909,
      "lng": -122.309245,
      "isIndependent": true,
      "website": "http://www.allaboardskate.com",
      "phone": "(253) 514-2084"
    },
    {
      "id": 1391,
      "name": "Allegedly skate co",
      "address": "721 W 25th St., Merced, CA 95340",
      "lat": 37.310915,
      "lng": -120.482243,
      "isIndependent": true,
      "phone": "(562) 371-3847"
    },
    {
      "id": 1898,
      "name": "Alliance Board Co",
      "address": "1233 Park St., Paso Robles, CA 93446",
      "lat": 35.627495,
      "lng": -120.690357,
      "isIndependent": true,
      "website": "http://www.allianceboardcompany.com",
      "phone": "(805) 238-2600"
    },
    {
      "id": 1315,
      "name": "Allied Record Exchange",
      "address": "1710 S Reynolds Rd., Toledo, OH 43614",
      "lat": 41.60914,
      "lng": -83.665345,
      "isIndependent": true,
      "website": "http://www.alliedrecordexchange.com",
      "phone": "(419) 861-1605"
    },
    {
      "id": 2014,
      "name": "Almi",
      "address": "1207 Lillian St., Center, TX 75935",
      "lat": 31.780823,
      "lng": -94.18945,
      "isIndependent": true
    },
    {
      "id": 1626,
      "name": "Alpine Shop VT",
      "address": "935 Shelburne Rd., South Burlington, VT 05403",
      "lat": 44.443744,
      "lng": -73.212273,
      "isIndependent": true,
      "website": "http://www.alpineshopvt.com",
      "phone": "(802) 862-2714"
    },
    {
      "id": 1271,
      "name": "Alumni Boardshop",
      "address": "1150 Williamson St., Madison, WI 53703",
      "lat": 43.083291,
      "lng": -89.364695,
      "isIndependent": true,
      "website": "https://alumniskateboarding.square.site"
    },
    {
      "id": 549,
      "name": "Always Boardshop",
      "address": "3856 PA-31, Jones Mills, PA 15646",
      "lat": 40.097834,
      "lng": -79.358832,
      "isIndependent": true,
      "website": "https://alwaysboardshop.com",
      "phone": "(724) 593-7800"
    },
    {
      "id": 1996,
      "name": "Ama La Vita",
      "address": "Hillcrest Shopping Center, 1624 US-52, Rochester, MN 55901",
      "lat": 44.039641,
      "lng": -92.486698,
      "isIndependent": true,
      "website": "http://shopamalavita.com",
      "phone": "(507) 281-1401"
    },
    {
      "id": 1125,
      "name": "Amateur Athlete",
      "address": "2110 W Union Blvd., Bethlehem, PA 18018",
      "lat": 40.62929,
      "lng": -75.418523,
      "isIndependent": true,
      "website": "http://www.aa1982.com",
      "phone": "(610) 866-0114"
    },
    {
      "id": 2172,
      "name": "Ameri-Can North Sports Center",
      "address": "90 Sharron Ave., Plattsburgh, NY 12901",
      "lat": 44.678958,
      "lng": -73.453046,
      "isIndependent": true,
      "website": "https://www.leaguelineup.com/welcome.asp?url=acnsc",
      "phone": "(518) 561-7672"
    },
    {
      "id": 26,
      "name": "America's Best Choice SKB, INC",
      "address": "328 Omar St., Los Angeles, CA 90013",
      "lat": 34.045908,
      "lng": -118.241378,
      "isIndependent": true,
      "phone": "(213) 947-3035"
    },
    {
      "id": 1883,
      "name": "AMPT Skate Shop",
      "address": "1040 H St., Arcata, CA 95521",
      "lat": 40.87015,
      "lng": -124.086223,
      "isIndependent": true,
      "website": "https://www.amptskateshop.com",
      "phone": "(707) 822-9500"
    },
    {
      "id": 1100,
      "name": "Anacapa Surf N Sport",
      "address": "1005 Harbor Blvd., Oxnard, CA 93035",
      "lat": 34.191345,
      "lng": -119.239599,
      "isIndependent": true,
      "phone": "(805) 382-1602"
    },
    {
      "id": 369,
      "name": "Anchor Skate Supply",
      "address": "501 16th St. S, St. Petersburg, FL 33705",
      "lat": 27.765444,
      "lng": -82.655129,
      "isIndependent": true,
      "website": "http://anchorskatesupply.com",
      "phone": "(727) 623-4580"
    },
    {
      "id": 2052,
      "name": "Anchors Skateshop",
      "address": "7123 US-98, Panama City Beach, FL 32407",
      "lat": 30.187106,
      "lng": -85.762108,
      "isIndependent": true,
      "website": "https://anchorsskateshop.com",
      "phone": "(850) 249-9993"
    },
    {
      "id": 145,
      "name": "Andrew",
      "address": "54 NE 40th St., Miami, FL 33137",
      "lat": 25.813261,
      "lng": -80.194415,
      "isIndependent": true,
      "website": "https://andrewdowntown.com",
      "phone": "(786) 641-5146"
    },
    {
      "id": 1419,
      "name": "Andy Jordan's Bicycle Warehouse",
      "address": "527 13th St., Augusta, GA 30901",
      "lat": 33.474782,
      "lng": -81.977548,
      "isIndependent": true,
      "website": "http://www.andyjordans.com",
      "phone": "(706) 724-2453"
    },
    {
      "id": 2160,
      "name": "Angry Mom Records",
      "address": "115 E State St., Ithaca, NY 14850",
      "lat": 42.439338,
      "lng": -76.498218,
      "isIndependent": true,
      "website": "https://www.angry-mom-records.com",
      "phone": "(607) 319-4953"
    },
    {
      "id": 276,
      "name": "Anime to Skateboards",
      "address": "13587 Eureka Rd., Southgate, MI 48195",
      "lat": 42.198326,
      "lng": -83.189309,
      "isIndependent": true,
      "website": "http://www.animetoskateboards.com",
      "phone": "(734) 246-5877"
    },
    {
      "id": 1567,
      "name": "Ann Arbor Skateboard Park",
      "address": "350 N Maple Rd., Ann Arbor, MI 48103",
      "lat": 42.284494,
      "lng": -83.779559,
      "isIndependent": true,
      "website": "http://www.a2skatepark.org"
    },
    {
      "id": 1463,
      "name": "Another Ride Surf Shop",
      "address": "1777 S Patrick Dr., Indian Harbour Beach, FL 32937",
      "lat": 28.158458,
      "lng": -80.602031,
      "isIndependent": true,
      "website": "http://anotherride.com",
      "phone": "(321) 720-5825"
    },
    {
      "id": 1670,
      "name": "Another Skate Shop",
      "address": "209 Lake Park Blvd. S, Carolina Beach, NC 28428",
      "lat": 34.031314,
      "lng": -77.894817,
      "isIndependent": true,
      "website": "https://www.facebook.com/AnotherSkateShop",
      "phone": "(910) 458-9922"
    },
    {
      "id": 1995,
      "name": "Anthem Skatepark and Board Shop",
      "address": "800 W 5th St., Winona, MN 55987",
      "lat": 44.054356,
      "lng": -91.658347,
      "isIndependent": true,
      "website": "http://anthemskateshop.com",
      "phone": "(507) 453-1642"
    },
    {
      "id": 127,
      "name": "Antics Skateshop",
      "address": "139 E Atlantic Ave., Haddon Heights, NJ 08035",
      "lat": 39.88272,
      "lng": -75.058493,
      "isIndependent": true,
      "website": "http://anticsskateshop.com",
      "phone": "(856) 436-0552"
    },
    {
      "id": 1830,
      "name": "Antisocial Skateboard Shop",
      "address": "1965 Main St., Vancouver, BC V5T 3C1, Canada",
      "lat": 49.267682,
      "lng": -123.101377,
      "isIndependent": true,
      "website": "https://www.antisocialshopworldwide.com",
      "phone": "(604) 708-5678"
    },
    {
      "id": 462,
      "name": "APB Charlotte",
      "address": "2705 Tuckaseegee Rd., Charlotte, NC 28208",
      "lat": 35.239201,
      "lng": -80.876039,
      "isIndependent": true,
      "website": "https://apbstore.com",
      "phone": "(704) 919-1137"
    },
    {
      "id": 1291,
      "name": "Apex Outdoor Sports, LLC",
      "address": "236 W Broad St., Statesville, NC 28677",
      "lat": 35.783962,
      "lng": -80.891346,
      "isIndependent": true,
      "website": "https://www.apexoutdoorsports.com",
      "phone": "(704) 380-4988"
    },
    {
      "id": 781,
      "name": "Apex Outfitter & Board Co.",
      "address": "225 N Salem St., Apex, NC 27502",
      "lat": 35.732535,
      "lng": -78.850445,
      "isIndependent": true,
      "website": "http://www.apexoutfitter.com",
      "phone": "(919) 267-9353"
    },
    {
      "id": 454,
      "name": "Aphonics IDrive Sneakers Store",
      "address": "5263 International Dr. suite b, Orlando, FL 32819",
      "lat": 28.467563,
      "lng": -81.452543,
      "isIndependent": true,
      "website": "http://www.aphonicss.com",
      "phone": "(407) 988-3493"
    },
    {
      "id": 1303,
      "name": "Apocalyptic Board Shop",
      "address": "3016 Valdez Dr., Des Moines, IA 50310",
      "lat": 41.637446,
      "lng": -93.660021,
      "isIndependent": true,
      "phone": "(712) 249-3907"
    },
    {
      "id": 2181,
      "name": "Appalachian Outdoors",
      "address": "131 S Allen St., State College, PA 16801",
      "lat": 40.79403,
      "lng": -77.860467,
      "isIndependent": true,
      "website": "http://www.appoutdoors.com",
      "phone": "(814) 234-3000"
    },
    {
      "id": 565,
      "name": "Apparition Skateboards",
      "address": "1906 Guadalupe St. Unit 2, Austin, TX 78705",
      "lat": 30.282463,
      "lng": -97.742262,
      "isIndependent": true,
      "website": "http://apparitionskateboards.com",
      "phone": "(512) 459-7827"
    },
    {
      "id": 1843,
      "name": "Apple Valley Emporium",
      "address": "204 N 6th Ave., Yakima, WA 98902",
      "lat": 46.602393,
      "lng": -120.518968,
      "isIndependent": true,
      "website": "http://www.applevalleyemporium.com",
      "phone": "(509) 902-1097"
    },
    {
      "id": 757,
      "name": "Aqua East Surf Shop",
      "address": "696 Atlantic Blvd., Neptune Beach, FL 32266",
      "lat": 30.324012,
      "lng": -81.406501,
      "isIndependent": true,
      "website": "http://aquaeast.com",
      "phone": "(904) 246-2550"
    },
    {
      "id": 765,
      "name": "Aqua East Surf Shop",
      "address": "1850 A1A S, St. Augustine, FL 32080",
      "lat": 29.861364,
      "lng": -81.280193,
      "isIndependent": true,
      "website": "https://www.aquaeast.com",
      "phone": "(904) 471-8070"
    },
    {
      "id": 1526,
      "name": "Arbor Tahoe",
      "address": "10130 Donner Pass Rd., Truckee, CA 96161",
      "lat": 39.327699,
      "lng": -120.186734,
      "isIndependent": true,
      "website": "https://www.arborcollective.com/pages/arbor-flagship-tahoe",
      "phone": "(530) 212-8800"
    },
    {
      "id": 42,
      "name": "Arbor Venice",
      "address": "102 Washington Blvd., Venice, CA 90292",
      "lat": 33.979667,
      "lng": -118.46524,
      "isIndependent": true,
      "website": "https://www.arborcollective.com/pages/arbor-flagship-venice-ca",
      "phone": "(310) 577-1131"
    },
    {
      "id": 1171,
      "name": "ARC Skate Shop and Body Piercing",
      "address": "428 W Kings Hwy, Eden, NC 27288",
      "lat": 36.490529,
      "lng": -79.754138,
      "isIndependent": true,
      "website": "http://arcskate.com",
      "phone": "(336) 635-9350"
    },
    {
      "id": 105,
      "name": "Archives",
      "address": "1811 14th St. NW, Washington, DC 20009",
      "lat": 38.914582,
      "lng": -77.031534,
      "isIndependent": true,
      "website": "https://archivesofficial.com",
      "phone": "(202) 621-7040"
    },
    {
      "id": 1198,
      "name": "Arena Pro Shop LLC",
      "address": "3185 Venetucci Blvd., Colorado Springs, CO 80906",
      "lat": 38.788282,
      "lng": -104.794618,
      "isIndependent": true,
      "phone": "(719) 579-8541"
    },
    {
      "id": 961,
      "name": "Arizona Sports Equipment",
      "address": "1221 W Monte Vista Dr., Tucson, AZ 85705",
      "lat": 32.259009,
      "lng": -110.991522,
      "isIndependent": true,
      "website": "http://www.arizonasportsequipment.com",
      "phone": "(520) 770-1224"
    },
    {
      "id": 1440,
      "name": "Arlberg Ski & Surf",
      "address": "48 West St., Freeport, ME 04032",
      "lat": 43.855127,
      "lng": -70.107449,
      "isIndependent": true,
      "website": "http://www.arlbergski.com",
      "phone": "(207) 865-0077"
    },
    {
      "id": 1427,
      "name": "Arlberg Ski and Surf Shops",
      "address": "283 Marginal Way, Portland, ME 04101",
      "lat": 43.666717,
      "lng": -70.258182,
      "isIndependent": true,
      "website": "http://www.arlbergski.com",
      "phone": "(207) 536-1377"
    },
    {
      "id": 1610,
      "name": "Arrow Surf & Sport",
      "address": "2100 Delaware Ave. Suite 1, Santa Cruz, CA 95060",
      "lat": 36.955887,
      "lng": -122.049521,
      "isIndependent": true,
      "website": "http://www.arrowsurfshop.com",
      "phone": "(831) 423-8286"
    },
    {
      "id": 348,
      "name": "arts-rec Skate Shop (Barrio Logan)",
      "address": "2161 Logan Ave., San Diego, CA 92113",
      "lat": 32.698321,
      "lng": -117.140044,
      "isIndependent": true,
      "website": "http://www.artsandrecstore.com",
      "phone": "(619) 892-7568"
    },
    {
      "id": 357,
      "name": "arts-rec Skateshop (Chula Vista)",
      "address": "241 3rd Ave., Chula Vista, CA 91910",
      "lat": 32.643388,
      "lng": -117.080374,
      "isIndependent": true,
      "website": "http://artsandrecstore.com",
      "phone": "(619) 500-5100"
    },
    {
      "id": 1586,
      "name": "Artsy Chica Boutique/Roll Forever Skate Shop",
      "address": "106 Third St., San Juan Bautista, CA 95045",
      "lat": 36.8439,
      "lng": -121.535416,
      "isIndependent": true
    },
    {
      "id": 1981,
      "name": "Ashwaubenon Boardwalk LLC",
      "address": "480 Pilgrim Way # 1200, Green Bay, WI 54304",
      "lat": 44.479123,
      "lng": -88.052683,
      "isIndependent": true,
      "phone": "(920) 430-1467"
    },
    {
      "id": 1760,
      "name": "Aspen Sports",
      "address": "15 N San Francisco St., Flagstaff, AZ 86001",
      "lat": 35.197804,
      "lng": -111.647957,
      "isIndependent": true,
      "website": "http://aspensportsflagstaff.com",
      "phone": "(928) 779-1935"
    },
    {
      "id": 680,
      "name": "Asphalt Beach",
      "address": "961 Woodland St., Nashville, TN 37206",
      "lat": 36.176956,
      "lng": -86.752237,
      "isIndependent": true,
      "website": "http://www.asphaltbeach.com",
      "phone": "(615) 228-1105"
    },
    {
      "id": 61,
      "name": "Asylum Skate Park",
      "address": "388 S Curran Rd., Round Lake, IL 60073",
      "lat": 42.340164,
      "lng": -88.088783,
      "isIndependent": true,
      "website": "http://www.asylumskatepark.com",
      "phone": "(847) 578-5103"
    },
    {
      "id": 365,
      "name": "Asylum Skate Shop",
      "address": "401 Mission Ave. B140, Oceanside, CA 92054",
      "lat": 33.195097,
      "lng": -117.380509,
      "isIndependent": true,
      "website": "http://www.asylumboardshop.com",
      "phone": "(760) 722-7675"
    },
    {
      "id": 825,
      "name": "Asylum Xtreme",
      "address": "531 Eastern Blvd., Clarksville, IN 47129",
      "lat": 38.297502,
      "lng": -85.760857,
      "isIndependent": true,
      "website": "http://www.asylumxtreme.com",
      "phone": "(812) 282-6999"
    },
    {
      "id": 715,
      "name": "Atlantic Surf Shop",
      "address": "3316 Atlantic Ave. #102, Virginia Beach, VA 23451",
      "lat": 36.861813,
      "lng": -75.978977,
      "isIndependent": true,
      "website": "https://www.atlanticsurfco.com",
      "phone": "(757) 350-9524"
    },
    {
      "id": 1195,
      "name": "atom longboards",
      "address": "212 Sutton Ln., Colorado Springs, CO 80907",
      "lat": 38.89,
      "lng": -104.831423,
      "isIndependent": true,
      "website": "https://www.atomlongboards.com",
      "phone": "(719) 884-1000"
    },
    {
      "id": 260,
      "name": "Attic Skate Shop",
      "address": "2588 Newport Blvd. # B, Costa Mesa, CA 92627",
      "lat": 33.662367,
      "lng": -117.89714,
      "isIndependent": true,
      "website": "http://atticskateshop.com",
      "phone": "(949) 645-3457"
    },
    {
      "id": 1679,
      "name": "Aussie Island Surf Shop",
      "address": "5101 Dunlea Ct. STE 101, Wilmington, NC 28405",
      "lat": 34.247013,
      "lng": -77.882533,
      "isIndependent": true,
      "website": "http://www.aussieisland.com",
      "phone": "(910) 256-5454"
    },
    {
      "id": 1550,
      "name": "Avalanche Skate Shop",
      "address": "211 Commerce Way suite D, Jupiter, FL 33458",
      "lat": 26.932019,
      "lng": -80.119491,
      "isIndependent": true,
      "website": "http://www.skatesusa.com",
      "phone": "(561) 406-5260"
    },
    {
      "id": 1105,
      "name": "Ave Skate Shop",
      "address": "530 Moorpark Ave. #180, Moorpark, CA 93021",
      "lat": 34.28436,
      "lng": -118.881724,
      "isIndependent": true,
      "phone": "(805) 517-0054"
    },
    {
      "id": 1395,
      "name": "Avenue Skateshop",
      "address": "221 N Muskogee Ave., Tahlequah, OK 74464",
      "lat": 35.91513,
      "lng": -94.970229,
      "isIndependent": true,
      "phone": "(918) 814-2649"
    },
    {
      "id": 978,
      "name": "Awake Skate Shop",
      "address": "260 N Ashland Ave., Lindsay, CA 93247",
      "lat": 36.202977,
      "lng": -119.09467,
      "isIndependent": true,
      "website": "https://www.awakeskateshop.com",
      "phone": "(559) 853-8715"
    },
    {
      "id": 1763,
      "name": "AZ Wood On Wheels Board Supply Shoes & Apparel",
      "address": "6480 E State Rte 69, Prescott Valley, AZ 86314",
      "lat": 34.582128,
      "lng": -112.351568,
      "isIndependent": true,
      "website": "https://m.facebook.com/yolanda.moneglia.54?ref=bookmarks",
      "phone": "(928) 759-0901"
    },
    {
      "id": 396,
      "name": "B. D. K. M. V.",
      "address": "975 Lincoln St. #10A, Denver, CO 80203",
      "lat": 39.739236,
      "lng": -104.990251,
      "isIndependent": true,
      "website": "https://bdkmv.ueniweb.com",
      "phone": "(970) 404-5375"
    },
    {
      "id": 1025,
      "name": "B&B Skate Shop",
      "address": "7123 Harrison St., La Vista, NE 68128",
      "lat": 41.190406,
      "lng": -96.022777,
      "isIndependent": true,
      "phone": "(402) 606-2638"
    },
    {
      "id": 943,
      "name": "B&R Sports",
      "address": "566 100th St. SW, Byron Center, MI 49315",
      "lat": 42.781524,
      "lng": -85.676837,
      "isIndependent": true,
      "website": "http://brsport.com",
      "phone": "(616) 877-4833"
    },
    {
      "id": 2078,
      "name": "Backdoor Skateshop",
      "address": "222 E 5th St., Greenville, NC 27858",
      "lat": 35.610711,
      "lng": -77.371093,
      "isIndependent": true,
      "website": "https://backdoorskateshop.com",
      "phone": "(252) 758-7467"
    },
    {
      "id": 1430,
      "name": "Backwoods Snowboards & Skateboards",
      "address": "1 Garfield Rd., Auburn, ME 04210",
      "lat": 44.081348,
      "lng": -70.270182,
      "isIndependent": true,
      "website": "http://www.ridebackwoods.com",
      "phone": "(207) 344-6622"
    },
    {
      "id": 1838,
      "name": "Backyard Boards Skate Shop",
      "address": "17414 Furman St. SW, Rochester, WA 98579",
      "lat": 46.834281,
      "lng": -123.058549,
      "isIndependent": true,
      "phone": "(206) 859-8363"
    },
    {
      "id": 830,
      "name": "Bad Dog Boards",
      "address": "2416 Meadow Rd., Louisville, KY 40205",
      "lat": 38.22767,
      "lng": -85.680075,
      "isIndependent": true,
      "phone": "(502) 836-4035"
    },
    {
      "id": 1317,
      "name": "Balance Distribution",
      "address": "4608 Industry Ln. Unit E, Durham, NC 27713",
      "lat": 35.940681,
      "lng": -78.901916,
      "isIndependent": true,
      "website": "https://balancedist.com",
      "phone": "(919) 564-9833"
    },
    {
      "id": 1617,
      "name": "Banana Stand",
      "address": "100 Main St., Burlington, VT 05401",
      "lat": 44.47598,
      "lng": -73.215271,
      "isIndependent": true,
      "website": "https://bananastand.co"
    },
    {
      "id": 254,
      "name": "BANNED Skate Shop",
      "address": "1200 Arizona St. b5, Redlands, CA 92374",
      "lat": 34.068413,
      "lng": -117.206678,
      "isIndependent": true,
      "website": "http://www.bannedskateshop.com",
      "phone": "(909) 793-7070"
    },
    {
      "id": 449,
      "name": "BARBER SKATE SHOP",
      "address": "717 N Kentucky Ave., Lakeland, FL 33801",
      "lat": 28.050951,
      "lng": -81.955081,
      "isIndependent": true,
      "website": "http://barberskateshop.com",
      "phone": "(863) 816-5733"
    },
    {
      "id": 2007,
      "name": "Barksdale Main Exchange",
      "address": "4711 Kenny Ave., Barksdale AFB, LA 71110",
      "lat": 32.49388,
      "lng": -93.675947,
      "isIndependent": true,
      "phone": "(318) 752-9227"
    },
    {
      "id": 1628,
      "name": "Basement Sk8 Shop",
      "address": "59 Hanover St., Lebanon, NH 03766",
      "lat": 43.643989,
      "lng": -72.254038,
      "isIndependent": true
    },
    {
      "id": 802,
      "name": "Bass Pro Shops at the Pyramid",
      "address": "1 Bass Pro Dr., Memphis, TN 38105",
      "lat": 35.155113,
      "lng": -90.052262,
      "isIndependent": true,
      "website": "https://stores.basspro.com/us/tn/memphis/1-bass-pro-dr.html?y_source=1_MzAxMTU0MS03MTUtbG9jYXRpb24ud2Vic2l0ZQ%3D%3D",
      "phone": "(901) 291-8200"
    },
    {
      "id": 1130,
      "name": "Bazaar Skateshop",
      "address": "342 Adams Ave. # 2, Scranton, PA 18503",
      "lat": 41.409047,
      "lng": -75.659932,
      "isIndependent": true,
      "phone": "(570) 909-9143"
    },
    {
      "id": 2166,
      "name": "BC Bicycles",
      "address": "215 Vestal Pkwy E, Vestal, NY 13850",
      "lat": 42.087559,
      "lng": -76.049062,
      "isIndependent": true,
      "phone": "(607) 785-3772"
    },
    {
      "id": 869,
      "name": "BC Surf & Sport",
      "address": "10450 State St., Sandy, UT 84070",
      "lat": 40.562943,
      "lng": -111.895261,
      "isIndependent": true,
      "phone": "(801) 523-9270"
    },
    {
      "id": 1601,
      "name": "BC Surf & Sport",
      "address": "1 W Flatiron Crossing Dr., Broomfield, CO 80021",
      "lat": 39.932299,
      "lng": -105.131871,
      "isIndependent": true,
      "website": "https://www.bcsurf.com",
      "phone": "(720) 887-2444"
    },
    {
      "id": 402,
      "name": "BC Surf & Sport @ Lonetree",
      "address": "8678 Park Meadows Center Dr., Lone Tree, CO 80124",
      "lat": 39.557412,
      "lng": -104.874243,
      "isIndependent": true,
      "website": "https://www.bcsurf.com",
      "phone": "(303) 768-8908"
    },
    {
      "id": 1599,
      "name": "BC Surf & Sport in Boulder",
      "address": "1600 28th St. #1200, Boulder, CO 80301",
      "lat": 40.015307,
      "lng": -105.257912,
      "isIndependent": true,
      "website": "http://bcsurf.com",
      "phone": "(303) 440-6030"
    },
    {
      "id": 152,
      "name": "BC Surf & Sport in Ft. Lauderdale",
      "address": "1701 N Federal Hwy, Fort Lauderdale, FL 33305",
      "lat": 26.150099,
      "lng": -80.120144,
      "isIndependent": true,
      "website": "https://www.bcsurf.com",
      "phone": "(954) 564-0202"
    },
    {
      "id": 506,
      "name": "BDK's Boardshop",
      "address": "39090 Pioneer Blvd. Suite A, Sandy, OR 97055",
      "lat": 45.396146,
      "lng": -122.260845,
      "isIndependent": true,
      "website": "http://www.bdkboardshop.com",
      "phone": "(503) 826-8301"
    },
    {
      "id": 1693,
      "name": "Beach Bums",
      "address": "302 S Ocean Blvd., Myrtle Beach, SC 29577",
      "lat": 33.6819,
      "lng": -78.890593,
      "isIndependent": true,
      "phone": "(843) 626-3787"
    },
    {
      "id": 1758,
      "name": "Beamers Action Sports Shop",
      "address": "263 N Woodruff Ave. Ste B, Idaho Falls, ID 83401",
      "lat": 43.498324,
      "lng": -111.99939,
      "isIndependent": true,
      "website": "https://beamersactionsports.com",
      "phone": "(208) 569-0461"
    },
    {
      "id": 1492,
      "name": "Bear Walker Pensacola",
      "address": "410 E Wright St., Pensacola, FL 32501",
      "lat": 30.417943,
      "lng": -87.210641,
      "isIndependent": true,
      "website": "https://bearwalker.com",
      "phone": "(850) 542-7528"
    },
    {
      "id": 1652,
      "name": "Bearings Skateboard Academy",
      "address": "NE 18th St., Bend, OR 97701",
      "lat": 44.099243,
      "lng": -121.278905,
      "isIndependent": true,
      "website": "https://www.bearingsskateacademy.com",
      "phone": "(541) 419-9124"
    },
    {
      "id": 490,
      "name": "Beatcomber.com (Online)",
      "address": "20523 Stone Oak Pkwy #3186, San Antonio, TX 78260",
      "lat": 29.646979,
      "lng": -98.466623,
      "isIndependent": true,
      "website": "http://www.beatcomber.com",
      "phone": "(512) 937-2955"
    },
    {
      "id": 1401,
      "name": "Beaver Boardshop",
      "address": "1440 Riverside Dr., Beaver, PA 15009",
      "lat": 40.709943,
      "lng": -80.298288,
      "isIndependent": true,
      "website": "http://www.beaverboardshop.com",
      "phone": "(724) 252-2328"
    },
    {
      "id": 389,
      "name": "Beehive Skate Shop",
      "address": "2272 S Broadway, Denver, CO 80210",
      "lat": 39.675242,
      "lng": -104.987306,
      "isIndependent": true,
      "website": "http://beehiveskatedenver.com",
      "phone": "(303) 632-9520"
    },
    {
      "id": 736,
      "name": "Belle City Boardshop",
      "address": "1913 Taylor Ave., Racine, WI 53403",
      "lat": 42.706976,
      "lng": -87.808712,
      "isIndependent": true,
      "website": "http://bellecityboards.com",
      "phone": "(262) 456-7067"
    },
    {
      "id": 1474,
      "name": "Benjamin Surf & Skateboards",
      "address": "1233 Airline Rd., Corpus Christi, TX 78412",
      "lat": 27.708685,
      "lng": -97.362951,
      "isIndependent": true,
      "website": "http://benjaminsurf.com",
      "phone": "(361) 993-2520"
    },
    {
      "id": 1587,
      "name": "Berdels",
      "address": "1233 Pacific Ave., Santa Cruz, CA 95060",
      "lat": 36.973376,
      "lng": -122.026118,
      "isIndependent": true,
      "website": "http://www.berdels.com",
      "phone": "(831) 421-1962"
    },
    {
      "id": 1640,
      "name": "Berg's Ski and Snowboard Shop",
      "address": "367 W 13th Ave., Eugene, OR 97401",
      "lat": 44.045824,
      "lng": -123.09833,
      "isIndependent": true,
      "website": "http://www.bergsskishop.com",
      "phone": "(541) 683-1300"
    },
    {
      "id": 1681,
      "name": "Bert's Surf Shop",
      "address": "800 N Lake Park Blvd., Carolina Beach, NC 28428",
      "lat": 34.040355,
      "lng": -77.895198,
      "isIndependent": true,
      "website": "https://www.bertsurfshop.com",
      "phone": "(910) 458-9047"
    },
    {
      "id": 1682,
      "name": "Bert's Surf Shop",
      "address": "310 N New River Dr., Surf City, NC 28445",
      "lat": 34.428898,
      "lng": -77.54203,
      "isIndependent": true,
      "website": "https://bertsurfshop.com",
      "phone": "(910) 328-1010"
    },
    {
      "id": 1701,
      "name": "Bert's Surf Shop",
      "address": "806 21st Ave. S, North Myrtle Beach, SC 29582",
      "lat": 33.809536,
      "lng": -78.708862,
      "isIndependent": true,
      "website": "https://www.bertsurfshop.com",
      "phone": "(843) 272-7458"
    },
    {
      "id": 2082,
      "name": "Bert's Surf Shop",
      "address": "210 E New Bern Rd., Kinston, NC 28504",
      "lat": 35.244076,
      "lng": -77.581444,
      "isIndependent": true,
      "website": "https://www.bertsurfshop.com",
      "phone": "(252) 527-0845"
    },
    {
      "id": 885,
      "name": "Bertelli's Skate Shop",
      "address": "726 Main St., West Springfield, MA 01089",
      "lat": 42.100529,
      "lng": -72.606419,
      "isIndependent": true,
      "website": "https://www.bertellisskateshop.com",
      "phone": "(413) 736-0633"
    },
    {
      "id": 106,
      "name": "Bethesda Scooters & Boards LLC. T/A Bethesda Boards",
      "address": "7900 Woodmont Ave., Bethesda, MD 20814",
      "lat": 38.988952,
      "lng": -77.096346,
      "isIndependent": true,
      "website": "https://www.bethesdaboards.com",
      "phone": "(301) 654-7710"
    },
    {
      "id": 1805,
      "name": "Bicycles Unlimited",
      "address": "90 S 100 E, St. George, UT 84770",
      "lat": 37.106677,
      "lng": -113.581377,
      "isIndependent": true,
      "website": "https://bicyclesunlimited.com",
      "phone": "(435) 673-4492"
    },
    {
      "id": 164,
      "name": "Big Poppa's Skate Shop",
      "address": "8572 Hickory Flat Hwy, Woodstock, GA 30188",
      "lat": 34.148167,
      "lng": -84.398232,
      "isIndependent": true,
      "website": "https://bigpoppas.shop",
      "phone": "(678) 480-8219"
    },
    {
      "id": 732,
      "name": "BIGFOOT BIKE AND SKATE LLC",
      "address": "N48W13334 Hampton Rd., Menomonee Falls, WI 53051",
      "lat": 43.105394,
      "lng": -88.077633,
      "isIndependent": true,
      "website": "https://www.bigfootbikeandskate.com",
      "phone": "(414) 332-3479"
    },
    {
      "id": 1215,
      "name": "Bikes & Boards",
      "address": "4480 Commercial Dr., New Hartford, NY 13413",
      "lat": 43.083146,
      "lng": -75.321881,
      "isIndependent": true,
      "website": "https://m.facebook.com/BikesBoardsCNY/",
      "phone": "(315) 768-1190"
    },
    {
      "id": 108,
      "name": "Bikes & Skates",
      "address": "712 Ritchie Rd., Capitol Heights, MD 20743",
      "lat": 38.879525,
      "lng": -76.858226,
      "isIndependent": true,
      "website": "http://www.bikeskatebowl.com",
      "phone": "(301) 333-2453"
    },
    {
      "id": 291,
      "name": "Bikes Blades & Boards - Bike Shop",
      "address": "17020 Mack Ave., Grosse Pointe, MI 48230",
      "lat": 42.394455,
      "lng": -82.922507,
      "isIndependent": true,
      "website": "https://www.bikesbladesandboards.com",
      "phone": "(313) 885-1300"
    },
    {
      "id": 1822,
      "name": "Bill's Skate Shop",
      "address": "22268 Dewdney Trunk Rd., Maple Ridge, BC V2X 3H9, Canada",
      "lat": 49.220373,
      "lng": -122.605299,
      "isIndependent": true,
      "website": "http://www.billsskateshop.com",
      "phone": "(604) 467-6133"
    },
    {
      "id": 672,
      "name": "Bill's Wheels Skateshop",
      "address": "1240 Soquel Ave., Santa Cruz, CA 95062",
      "lat": 36.980358,
      "lng": -122.00909,
      "isIndependent": true,
      "website": "http://billswheels.com",
      "phone": "(831) 469-0904"
    },
    {
      "id": 2023,
      "name": "Biloxi DIY Skatepark",
      "address": "205 Hopkins Blvd., Biloxi, MS 39530",
      "lat": 30.39927,
      "lng": -88.895134,
      "isIndependent": true,
      "website": "https://www.gulfcoastskateparksassociation.org"
    },
    {
      "id": 421,
      "name": "BingShop",
      "address": "211 E Vandalia St., Edwardsville, IL 62025",
      "lat": 38.811865,
      "lng": -89.953865,
      "isIndependent": true,
      "website": "http://www.bingshop.com",
      "phone": "(618) 692-8271"
    },
    {
      "id": 2153,
      "name": "Birgfelds Bicycle Shop",
      "address": "184 E Main St., Searsport, ME 04974",
      "lat": 44.46279,
      "lng": -68.906597,
      "isIndependent": true,
      "phone": "(207) 548-2916"
    },
    {
      "id": 1207,
      "name": "Black Mamba Skate Park",
      "address": "1 Lepage Pl., Syracuse, NY 13206",
      "lat": 43.072389,
      "lng": -76.099184,
      "isIndependent": true,
      "website": "http://blackmambaskatepark.com",
      "phone": "(315) 307-2758"
    },
    {
      "id": 298,
      "name": "Black Market Skates",
      "address": "8114 Aurora Ave. N, Seattle, WA 98103",
      "lat": 47.688127,
      "lng": -122.344282,
      "isIndependent": true,
      "website": "http://www.blackmarketskates.com",
      "phone": "(206) 930-8851"
    },
    {
      "id": 457,
      "name": "Black Sheep",
      "address": "830 Lamar Ave., Charlotte, NC 28204",
      "lat": 35.220595,
      "lng": -80.816928,
      "isIndependent": true,
      "website": "https://blacksheepskateshop.com",
      "phone": "(704) 333-1423"
    },
    {
      "id": 1103,
      "name": "BlackHole SkateShop",
      "address": "427 N Ventura Ave., Ventura, CA 93001",
      "lat": 34.286485,
      "lng": -119.299428,
      "isIndependent": true,
      "website": "http://blackholeskate.com",
      "phone": "(805) 628-3389"
    },
    {
      "id": 579,
      "name": "Blacklist Boardshop",
      "address": "772 E McMillan St. Unit 2, Cincinnati, OH 45206",
      "lat": 39.126183,
      "lng": -84.491781,
      "isIndependent": true,
      "website": "https://blacklistboardshop.com",
      "phone": "(513) 861-8666"
    },
    {
      "id": 585,
      "name": "Blacklist Boardshop",
      "address": "233 Walnut St., Lawrenceburg, IN 47025",
      "lat": 39.093816,
      "lng": -84.849473,
      "isIndependent": true,
      "website": "http://www.blacklistboardshop.com",
      "phone": "(812) 537-5483"
    },
    {
      "id": 1746,
      "name": "BlackMarket Vape & Smoke",
      "address": "1622 Grand Ave. Apt E, Laramie, WY 82070",
      "lat": 41.30964,
      "lng": -105.575192,
      "isIndependent": true,
      "website": "http://blackmarketsmoke.com",
      "phone": "(307) 460-3386"
    },
    {
      "id": 1434,
      "name": "Blackpoint Surf Shop",
      "address": "134 Black Point Rd., Scarborough, ME 04074",
      "lat": 43.578793,
      "lng": -70.322576,
      "isIndependent": true,
      "website": "https://www.blackpointsurfshop.com",
      "phone": "(207) 939-6016"
    },
    {
      "id": 376,
      "name": "Blacktop Surf Shop",
      "address": "12071 Indian Rocks Rd., Largo, FL 33774",
      "lat": 27.883255,
      "lng": -82.832017,
      "isIndependent": true,
      "website": "http://blacktopsurfshop.com",
      "phone": "(727) 223-9111"
    },
    {
      "id": 84,
      "name": "Blades By Todd",
      "address": "5750 Davis Blvd. #108 B, North Richland Hills, TX 76180",
      "lat": 32.85099,
      "lng": -97.213159,
      "isIndependent": true,
      "website": "http://facebook.com/bladesbytodd",
      "phone": "(817) 909-9993"
    },
    {
      "id": 78,
      "name": "Blaize Culture®",
      "address": "6300 Hulen Bend Blvd., Fort Worth, TX 76132",
      "lat": 32.661544,
      "lng": -97.404271,
      "isIndependent": true,
      "website": "https://www.blaizeculture.com",
      "phone": "(469) 858-6231"
    },
    {
      "id": 525,
      "name": "Bland Pro Shop",
      "address": "2290 Nicolaus Rd. Suite 103, Lincoln, CA 95648",
      "lat": 38.897974,
      "lng": -121.322331,
      "isIndependent": true,
      "website": "http://blandpro.shop",
      "phone": "(916) 415-8736"
    },
    {
      "id": 1864,
      "name": "Blast Off Vintage",
      "address": "860 High St. NE, Salem, OR 97301",
      "lat": 44.947702,
      "lng": -123.032883,
      "isIndependent": true,
      "website": "https://m.facebook.com/Blast-Off-Vintage-701880059906050/"
    },
    {
      "id": 1086,
      "name": "Blazer Skate & Moto",
      "address": "1212 Laurens Rd., Greenville, SC 29607",
      "lat": 34.845884,
      "lng": -82.368009,
      "isIndependent": true,
      "website": "https://www.facebook.com/blazerskateshop/",
      "phone": "(864) 242-4456"
    },
    {
      "id": 1513,
      "name": "Blissed Out Skate Shop",
      "address": "1313 S Carson St., Carson City, NV 89701",
      "lat": 39.155742,
      "lng": -119.765599,
      "isIndependent": true,
      "website": "https://blissed-out-skate-shop.myshopify.com",
      "phone": "(775) 781-0258"
    },
    {
      "id": 1833,
      "name": "Blue Collar",
      "address": "3620 Iron Gate Rd. #107, Bellingham, WA 98226",
      "lat": 48.779197,
      "lng": -122.452019,
      "isIndependent": true,
      "website": "http://quagmireco.com",
      "phone": "(360) 420-0048"
    },
    {
      "id": 1966,
      "name": "Blue Dragon Skate Shop",
      "address": "714 Appleton Rd. Unit B, Menasha, WI 54952",
      "lat": 44.21111,
      "lng": -88.437591,
      "isIndependent": true,
      "website": "https://www.bluedragonskate.com",
      "phone": "(920) 486-1694"
    },
    {
      "id": 911,
      "name": "Blue Tile Lounge",
      "address": "803 Queen St. W, Toronto, ON M6J 1G1, Canada",
      "lat": 43.64612,
      "lng": -79.408797,
      "isIndependent": true,
      "website": "http://www.bluetilelounge.com",
      "phone": "(416) 792-7171"
    },
    {
      "id": 1111,
      "name": "BLUE ZONE",
      "address": "2051 N Rose Ave., Oxnard, CA 93036",
      "lat": 34.221069,
      "lng": -119.161316,
      "isIndependent": true,
      "website": "http://www.bzclothing.com",
      "phone": "(805) 981-9950"
    },
    {
      "id": 390,
      "name": "BLUECAR Skate Shop",
      "address": "7827 W Jewell Ave., Lakewood, CO 80232",
      "lat": 39.682487,
      "lng": -105.085815,
      "isIndependent": true,
      "website": "https://bluecarskateshop.myshopify.com",
      "phone": "(661) 993-1582"
    },
    {
      "id": 1159,
      "name": "Bluetile Skateboards",
      "address": "621-23 Harden St., Columbia, SC 29205",
      "lat": 33.998108,
      "lng": -81.01591,
      "isIndependent": true,
      "website": "http://www.bluetilesc.com",
      "phone": "(803) 376-1880"
    },
    {
      "id": 1217,
      "name": "Bluetile Skateboards",
      "address": "49 Spring St. a, Charleston, SC 29403",
      "lat": 32.792175,
      "lng": -79.942883,
      "isIndependent": true,
      "website": "https://bluetilesc.com",
      "phone": "(843) 577-2758"
    },
    {
      "id": 954,
      "name": "BLX Skateboard Shop",
      "address": "197 E Toole Ave., Tucson, AZ 85701",
      "lat": 32.224833,
      "lng": -110.968876,
      "isIndependent": true,
      "website": "https://blxskateshop.com",
      "phone": "(520) 623-3541 ext. 403"
    },
    {
      "id": 356,
      "name": "Bo’s Boots on Wheels, formerly Sin City Skates",
      "address": "8280 Clairemont Mesa Blvd. #126, San Diego, CA 92111",
      "lat": 32.835643,
      "lng": -117.146408,
      "isIndependent": true,
      "website": "http://www.bosbootsonwheels.com",
      "phone": "(619) 232-4200"
    },
    {
      "id": 1783,
      "name": "Board & Buckle Co",
      "address": "2822 North Ave., Grand Junction, CO 81501",
      "lat": 39.077676,
      "lng": -108.52967,
      "isIndependent": true,
      "website": "http://www.boardandbuckle.com",
      "phone": "(970) 242-9285"
    },
    {
      "id": 1756,
      "name": "Board Bin",
      "address": "180 4th St. E, Ketchum, ID 83340",
      "lat": 43.680339,
      "lng": -114.365863,
      "isIndependent": true,
      "website": "http://www.boardbin.com",
      "phone": "(208) 726-1222"
    },
    {
      "id": 1477,
      "name": "Board House",
      "address": "505 N Alister St., Port Aransas, TX 78373",
      "lat": 27.836627,
      "lng": -97.061276,
      "isIndependent": true,
      "website": "http://www.boardhousesurfshop.com",
      "phone": "(361) 749-3100"
    },
    {
      "id": 1796,
      "name": "Board House and Bike Shop",
      "address": "1137 Mechem Dr., Ruidoso, NM 88345",
      "lat": 33.36678,
      "lng": -105.665772,
      "isIndependent": true,
      "phone": "(575) 808-8991"
    },
    {
      "id": 1718,
      "name": "Board Of Missoula",
      "address": "618 S Higgins Ave., Missoula, MT 59801",
      "lat": 46.865417,
      "lng": -113.997137,
      "isIndependent": true,
      "website": "https://boardofmissoula.com",
      "phone": "(406) 721-7774"
    },
    {
      "id": 866,
      "name": "Board of Provo",
      "address": "465 N University Ave., Provo, UT 84601",
      "lat": 40.239978,
      "lng": -111.658926,
      "isIndependent": true,
      "website": "http://www.boardofprovo.com",
      "phone": "(801) 356-3185"
    },
    {
      "id": 256,
      "name": "Board Shops of America",
      "address": "10220 Hole Ave. STE 6, Riverside, CA 92503",
      "lat": 33.914458,
      "lng": -117.461925,
      "isIndependent": true,
      "phone": "(951) 351-1015"
    },
    {
      "id": 1834,
      "name": "Boarder Labs and CalStreets",
      "address": "1754 W 4th Ave., Vancouver, BC V6J 1M1, Canada",
      "lat": 49.267792,
      "lng": -123.144492,
      "isIndependent": true,
      "website": "http://longboarderlabs.com",
      "phone": "(778) 383-1199"
    },
    {
      "id": 1437,
      "name": "Boarder Patrol",
      "address": "2399 White Mountain Hwy, North Conway, NH 03860",
      "lat": 44.045269,
      "lng": -71.124444,
      "isIndependent": true,
      "website": "http://boarder-patrol.lany.io",
      "phone": "(603) 356-5885"
    },
    {
      "id": 1106,
      "name": "Boarders (skateshop)",
      "address": "6600 Topanga Canyon Blvd., Canoga Park, CA 91303",
      "lat": 34.191164,
      "lng": -118.604336,
      "isIndependent": true,
      "website": "https://boardersla.com",
      "phone": "(818) 226-0008"
    },
    {
      "id": 1446,
      "name": "Boardgarden",
      "address": "2740 Jefferson St., Napa, CA 94558",
      "lat": 38.313188,
      "lng": -122.29664,
      "isIndependent": true,
      "phone": "(707) 253-7949"
    },
    {
      "id": 1164,
      "name": "Boardparadise Store",
      "address": "1206 E Wendover Ave. Suite A, Greensboro, NC 27405",
      "lat": 36.087407,
      "lng": -79.76977,
      "isIndependent": true,
      "website": "https://www.boardparadise.com",
      "phone": "(336) 545-6115"
    },
    {
      "id": 1185,
      "name": "Boards 'N More",
      "address": "320 Oak St., Brentwood, CA 94513",
      "lat": 37.932256,
      "lng": -121.695244,
      "isIndependent": true,
      "website": "https://www.boardsnmore.com",
      "phone": "(925) 240-5653"
    },
    {
      "id": 1515,
      "name": "Bobo's Ski & Patio",
      "address": "475 E Moana Ln., Reno, NV 89502",
      "lat": 39.493154,
      "lng": -119.791816,
      "isIndependent": true,
      "website": "http://www.bobos.com",
      "phone": "(775) 826-9096"
    },
    {
      "id": 2124,
      "name": "Bobos Appliances 4 Less Beaumont",
      "address": "2770 I-10, Beaumont, TX 77703",
      "lat": 30.096815,
      "lng": -94.131383,
      "isIndependent": true,
      "website": "https://boboshomeappliances.com",
      "phone": "(409) 937-2549"
    },
    {
      "id": 1245,
      "name": "Boise Skateboard supply",
      "address": "10383 Fairview Ave., Boise, ID 83704",
      "lat": 43.618319,
      "lng": -116.311028,
      "isIndependent": true,
      "phone": "(208) 283-0001"
    },
    {
      "id": 980,
      "name": "boneyard skate shop",
      "address": "40120 CA-41 STE H, Oakhurst, CA 93644",
      "lat": 37.332377,
      "lng": -119.654862,
      "isIndependent": true
    },
    {
      "id": 1501,
      "name": "Bongo's Fun Center",
      "address": "202 Racetrack Rd. NW, Fort Walton Beach, FL 32547",
      "lat": 30.45039,
      "lng": -86.622464,
      "isIndependent": true,
      "website": "https://www.fortsk8.com",
      "phone": "(850) 863-1223"
    },
    {
      "id": 1847,
      "name": "Bonzis",
      "address": "633 Yakima Valley Hwy, Sunnyside, WA 98944",
      "lat": 46.328186,
      "lng": -120.011118,
      "isIndependent": true,
      "website": "http://shopbonzis.com",
      "phone": "(509) 839-3222"
    },
    {
      "id": 1453,
      "name": "bored.",
      "address": "605 Main St., Martinez, CA 94553",
      "lat": 38.017066,
      "lng": -122.137465,
      "isIndependent": true,
      "website": "http://bored.business",
      "phone": "(925) 289-8654"
    },
    {
      "id": 173,
      "name": "Born To Skate Co",
      "address": "171 Auburn Ave. NE, Atlanta, GA 30303",
      "lat": 33.755417,
      "lng": -84.381587,
      "isIndependent": true,
      "phone": "(800) 804-9231"
    },
    {
      "id": 514,
      "name": "Boulevard Skate Shop",
      "address": "2309 K St. Suite 100, Sacramento, CA 95816",
      "lat": 38.57465,
      "lng": -121.475804,
      "isIndependent": true,
      "phone": "(916) 806-7566"
    },
    {
      "id": 236,
      "name": "Break Free SkateShop",
      "address": "1212 Webster St., Oakland, CA 94612",
      "lat": 37.802257,
      "lng": -122.269328,
      "isIndependent": true,
      "website": "http://breakfreeskateshop.com",
      "phone": "(510) 817-4450"
    },
    {
      "id": 919,
      "name": "Breaking Free Skatepark",
      "address": "1044 University Ave., Rochester, NY 14607",
      "lat": 43.154204,
      "lng": -77.573676,
      "isIndependent": true,
      "website": "http://www.breakingfreeskatepark.com",
      "phone": "(585) 271-7277"
    },
    {
      "id": 1570,
      "name": "Brian's Skate Shop",
      "address": "137 Community Dr. C, Ozark, AL 36360",
      "lat": 31.453727,
      "lng": -85.637746,
      "isIndependent": true,
      "website": "http://www.briansskateshop.com",
      "phone": "(334) 445-3459"
    },
    {
      "id": 1594,
      "name": "Brick By Brick",
      "address": "501 E Main St., Kingsport, TN 37660",
      "lat": 36.54256,
      "lng": -82.55804,
      "isIndependent": true
    },
    {
      "id": 1140,
      "name": "Bricks & Bombs",
      "address": "3103 North Blvd., Baton Rouge, LA 70806",
      "lat": 30.448382,
      "lng": -91.156569,
      "isIndependent": true,
      "website": "http://www.bricksandbombs.com",
      "phone": "(225) 257-9196"
    },
    {
      "id": 2189,
      "name": "Bright Side Skateboard Supply",
      "address": "98 King St. N, Waterloo, ON N2J 2X4, Canada",
      "lat": 43.468344,
      "lng": -80.523025,
      "isIndependent": true,
      "website": "http://brightsideskate.com",
      "phone": "(519) 465-7618"
    },
    {
      "id": 2099,
      "name": "Bristol Skateway",
      "address": "210 Skateway Dr., Bristol, TN 37620",
      "lat": 36.590443,
      "lng": -82.214789,
      "isIndependent": true,
      "website": "http://bristolskateway.com",
      "phone": "(423) 968-9680"
    },
    {
      "id": 1353,
      "name": "BROKE SK8",
      "address": "1810 E Sprague Ave., Spokane, WA 99202",
      "lat": 47.657116,
      "lng": -117.383755,
      "isIndependent": true,
      "website": "https://www.facebook.com/profile.php?id=61574204895437",
      "phone": "(509) 723-5821"
    },
    {
      "id": 1579,
      "name": "Broken Skate Shop",
      "address": "415 Alvarado St., Monterey, CA 93940",
      "lat": 36.599527,
      "lng": -121.894277,
      "isIndependent": true,
      "phone": "(831) 207-5968"
    },
    {
      "id": 166,
      "name": "Brook Run Skate Shop",
      "address": "4770 N Peachtree Rd., Dunwoody, GA 30338",
      "lat": 33.934996,
      "lng": -84.297404,
      "isIndependent": true,
      "phone": "(404) 279-2577"
    },
    {
      "id": 843,
      "name": "Brooks' Bike and Board Shop of Slidell",
      "address": "208 W Hall Ave., Slidell, LA 70460",
      "lat": 30.284879,
      "lng": -89.781492,
      "isIndependent": true,
      "website": "http://brooksbikeshop.com",
      "phone": "(985) 265-4278"
    },
    {
      "id": 851,
      "name": "Brooks' Bike Shop of Covington",
      "address": "416 E Gibson St., Covington, LA 70433",
      "lat": 30.476962,
      "lng": -90.095438,
      "isIndependent": true,
      "website": "http://www.brooksbikeshop.com",
      "phone": "(985) 338-5933"
    },
    {
      "id": 1441,
      "name": "Brotherhood Board Shop",
      "address": "1422 Mendocino Ave., Santa Rosa, CA 95401",
      "lat": 38.453796,
      "lng": -122.717219,
      "isIndependent": true,
      "website": "http://www.brotherhoodboard.com",
      "phone": "(707) 546-0660"
    },
    {
      "id": 662,
      "name": "Brunswick Skate Station",
      "address": "1261 Industrial Pkwy N # 4, Brunswick, OH 44212",
      "lat": 41.241436,
      "lng": -81.794578,
      "isIndependent": true,
      "website": "http://www.skatestation.net",
      "phone": "(330) 225-9842"
    },
    {
      "id": 289,
      "name": "Brush Alley Skateshop",
      "address": "408 S Saginaw St., Flint, MI 48502",
      "lat": 43.016506,
      "lng": -83.691669,
      "isIndependent": true,
      "website": "http://brushalleyskateshop.com",
      "phone": "(810) 820-9031"
    },
    {
      "id": 741,
      "name": "BS The Board Shop",
      "address": "259 Broad St., Lake Geneva, WI 53147",
      "lat": 42.592489,
      "lng": -88.434974,
      "isIndependent": true,
      "website": "http://www.bswake.com",
      "phone": "(262) 248-1703"
    },
    {
      "id": 2170,
      "name": "BSE Skateboard Shop + Coffee Bar",
      "address": "225 Princess St., Kingston, ON K7K 3E6, Canada",
      "lat": 44.232362,
      "lng": -76.486556,
      "isIndependent": true,
      "website": "http://www.bseskate.com",
      "phone": "(613) 766-2259"
    },
    {
      "id": 2001,
      "name": "Buck's Smokes 4 Less",
      "address": "91 Copeland Ave., La Crosse, WI 54603",
      "lat": 43.826428,
      "lng": -91.250035,
      "isIndependent": true,
      "website": "https://smokes4lesslacrosse.com",
      "phone": "(608) 615-1841"
    },
    {
      "id": 905,
      "name": "Buckner's Source For Sports",
      "address": "545 Niagara St., Welland, ON L3C 1L8, Canada",
      "lat": 43.005475,
      "lng": -79.253336,
      "isIndependent": true,
      "website": "https://www.sourceforsports.ca/pages/buckners-source-for-sports-welland",
      "phone": "(905) 734-6422"
    },
    {
      "id": 941,
      "name": "Buffalo Bob's",
      "address": "136 Washington Ave., Grand Haven, MI 49417",
      "lat": 43.063855,
      "lng": -86.231308,
      "isIndependent": true,
      "website": "http://www.buffalobobsskate.com",
      "phone": "(616) 847-0019"
    },
    {
      "id": 134,
      "name": "Bullseye",
      "address": "1509 Walnut St., Philadelphia, PA 19102",
      "lat": 39.949838,
      "lng": -75.166371,
      "isIndependent": true,
      "website": "https://bullseyesb.com",
      "phone": "(267) 889-6237"
    },
    {
      "id": 1347,
      "name": "Bullseye Sneaker Boutique",
      "address": "3401 Hartzdale Dr. Suite 117, Camp Hill, PA 17011",
      "lat": 40.22354,
      "lng": -76.926757,
      "isIndependent": true,
      "website": "https://bullseyesb.com",
      "phone": "(717) 304-7432"
    },
    {
      "id": 1180,
      "name": "Bungalow Bills",
      "address": "7610 N Hills Blvd., North Little Rock, AR 72116",
      "lat": 34.822337,
      "lng": -92.237993,
      "isIndependent": true,
      "phone": "(501) 548-5456"
    },
    {
      "id": 996,
      "name": "Bunger Sayville",
      "address": "247A W Main St., Sayville, NY 11782",
      "lat": 40.733342,
      "lng": -73.087843,
      "isIndependent": true,
      "website": "http://www.bungersayville.com",
      "phone": "(631) 244-7070"
    },
    {
      "id": 1372,
      "name": "Burlaep Print and Press",
      "address": "801 E 11th St., Chattanooga, TN 37403",
      "lat": 35.03938,
      "lng": -85.297197,
      "isIndependent": true,
      "website": "https://burlaep.com/pages/burlaep-print-and-press",
      "phone": "(423) 451-2109"
    },
    {
      "id": 1622,
      "name": "Burton Burlington Headquarters Flagship Store",
      "address": "180 Queen City Park Rd., Burlington, VT 05401",
      "lat": 44.448841,
      "lng": -73.219772,
      "isIndependent": true,
      "website": "https://www.burton.com/us/en/home",
      "phone": "(802) 660-3200"
    },
    {
      "id": 1941,
      "name": "Bushwhacker",
      "address": "5728 Knoxville Ave., Peoria, IL 61614",
      "lat": 40.757474,
      "lng": -89.592736,
      "isIndependent": true,
      "website": "http://www.bushwhacker.com",
      "phone": "(309) 692-4812"
    },
    {
      "id": 300,
      "name": "By and By",
      "address": "4502 California Ave. SW, Seattle, WA 98116",
      "lat": 47.562715,
      "lng": -122.386578,
      "isIndependent": true,
      "website": "http://byandbyseattle.com",
      "phone": "(206) 327-3512"
    },
    {
      "id": 226,
      "name": "C&S Sporting Goods",
      "address": "7822 N 12th St., Phoenix, AZ 85020",
      "lat": 33.551383,
      "lng": -112.058125,
      "isIndependent": true,
      "website": "http://www.cssportinggoods.com",
      "phone": "(602) 279-8406"
    },
    {
      "id": 97,
      "name": "Cade's Boards (Skateboards, Shoes)",
      "address": "422 Sawdust Rd., Spring, TX 77380",
      "lat": 30.12764,
      "lng": -95.448906,
      "isIndependent": true,
      "website": "http://cadesboards.com",
      "phone": "(281) 419-0900"
    },
    {
      "id": 494,
      "name": "Cal Skate Skateboards",
      "address": "210 NW 6th Ave., Portland, OR 97209",
      "lat": 45.52493,
      "lng": -122.67637,
      "isIndependent": true,
      "website": "http://www.calsk8.com",
      "phone": "(503) 248-0495"
    },
    {
      "id": 323,
      "name": "Cal Surf",
      "address": "1715 W Lake St., Minneapolis, MN 55408",
      "lat": 44.948213,
      "lng": -93.304112,
      "isIndependent": true,
      "website": "http://www.cal-surf.com",
      "phone": "(612) 822-6840"
    },
    {
      "id": 904,
      "name": "Calhoun Surf N Skate",
      "address": "250 Bunting Rd., St. Catharines, ON L2M 3Y1, Canada",
      "lat": 43.174961,
      "lng": -79.209426,
      "isIndependent": true,
      "website": "https://calhounsurfnskate.com",
      "phone": "(905) 688-6100"
    },
    {
      "id": 1749,
      "name": "Cannon Skate Shop",
      "address": "357 A St., Idaho Falls, ID 83402",
      "lat": 43.492233,
      "lng": -112.04048,
      "isIndependent": true,
      "website": "https://www.cannonskateshop.com",
      "phone": "(208) 909-6360"
    },
    {
      "id": 989,
      "name": "Captiv8 Sk8 Gear & Apparel",
      "address": "55 E D St., Lemoore, CA 93245",
      "lat": 36.301765,
      "lng": -119.779952,
      "isIndependent": true,
      "phone": "(559) 772-5976"
    },
    {
      "id": 698,
      "name": "Cardinal Skate Shop",
      "address": "733 Granby St., Norfolk, VA 23510",
      "lat": 36.855418,
      "lng": -76.288628,
      "isIndependent": true,
      "website": "http://www.cardinalskateshop.com",
      "phone": "(757) 306-0550"
    },
    {
      "id": 1588,
      "name": "Carmel Surf Shop",
      "address": "Tucked into Serena Court, San Carlos between 5th & 6th, 5th Ave., Carmel-By-The-Sea, CA 93921",
      "lat": 36.556054,
      "lng": -121.922167,
      "isIndependent": true,
      "website": "http://www.carmelsurfshop.com",
      "phone": "(831) 224-4446"
    },
    {
      "id": 1226,
      "name": "Carolina Ice Palace Pro Shop",
      "address": "7665 Northwoods Blvd., North Charleston, SC 29406",
      "lat": 32.940076,
      "lng": -80.048762,
      "isIndependent": true,
      "website": "http://www.carolinaicepalace.com/pro-shop/",
      "phone": "(843) 572-2717"
    },
    {
      "id": 2077,
      "name": "Carolina Skate Land",
      "address": "1500 N Ellis Ave., Dunn, NC 28334",
      "lat": 35.32238,
      "lng": -78.604408,
      "isIndependent": true,
      "website": "http://www.carolinaskateland.com",
      "phone": "(910) 892-1264"
    },
    {
      "id": 1264,
      "name": "Carousel Skate Center",
      "address": "312 N West St., Wichita, KS 67203",
      "lat": 37.688478,
      "lng": -97.388739,
      "isIndependent": true,
      "website": "http://www.carouselsk8ks.com",
      "phone": "(316) 942-4505"
    },
    {
      "id": 1534,
      "name": "Carp Sports",
      "address": "1060 Casitas Pass Rd., Carpinteria, CA 93013",
      "lat": 34.395726,
      "lng": -119.5116,
      "isIndependent": true,
      "website": "http://www.carpsports.com",
      "phone": "(805) 566-1800"
    },
    {
      "id": 76,
      "name": "Carriers Skate Shop",
      "address": "1420 K Ave., Plano, TX 75074",
      "lat": 33.019347,
      "lng": -96.699012,
      "isIndependent": true,
      "website": "http://www.carriersskateshop.com",
      "phone": "(469) 367-0083"
    },
    {
      "id": 1368,
      "name": "Cassette Skateshop",
      "address": "3935 St. Elmo Ave., Chattanooga, TN 37409",
      "lat": 35.009331,
      "lng": -85.328314,
      "isIndependent": true,
      "website": "http://www.cassetteskateshop.com",
      "phone": "(423) 401-8376"
    },
    {
      "id": 1470,
      "name": "Catalyst",
      "address": "109 N Orlando Ave., Cocoa Beach, FL 32931",
      "lat": 28.320503,
      "lng": -80.609669,
      "isIndependent": true,
      "website": "https://catalystshop.com/cocoa-beach/",
      "phone": "(321) 783-1530"
    },
    {
      "id": 1462,
      "name": "Catalyst Shop",
      "address": "209 Ocean Ave., Melbourne Beach, FL 32951",
      "lat": 28.068068,
      "lng": -80.558208,
      "isIndependent": true,
      "website": "https://catalystshop.com/melbourne-beach/",
      "phone": "(321) 728-2960"
    },
    {
      "id": 440,
      "name": "Catalyst Surf & Skate",
      "address": "12250 Strategy Blvd. #425, Orlando, FL 32817",
      "lat": 28.599914,
      "lng": -81.208777,
      "isIndependent": true,
      "website": "http://catalystshop.com",
      "phone": "(407) 380-7427"
    },
    {
      "id": 435,
      "name": "Catonsville Bicycles and Skateboards",
      "address": "825 Frederick Rd. Rear, Catonsville, MD 21228",
      "lat": 39.270851,
      "lng": -76.734759,
      "isIndependent": true,
      "website": "http://catonsvillebicycles.com",
      "phone": "(667) 802-4622"
    },
    {
      "id": 1901,
      "name": "Cayucos Surf Company",
      "address": "146 N Ocean Ave. Suite A, Cayucos, CA 93430",
      "lat": 35.449335,
      "lng": -120.904717,
      "isIndependent": true,
      "website": "http://surfcompany.com",
      "phone": "(805) 995-1000"
    },
    {
      "id": 679,
      "name": "Cecil's Skate Shop",
      "address": "1200 Porter Rd. #3, Nashville, TN 37206",
      "lat": 36.189089,
      "lng": -86.729311,
      "isIndependent": true,
      "website": "http://www.cecilsskateshop.com"
    },
    {
      "id": 477,
      "name": "CENTRAL",
      "address": "421 N Main Ave., San Antonio, TX 78205",
      "lat": 29.429076,
      "lng": -98.494112,
      "isIndependent": true,
      "website": "http://instagram.com/central.tx",
      "phone": "(210) 253-9750"
    },
    {
      "id": 1889,
      "name": "Central Coast Surfboards",
      "address": "855 Marsh St., San Luis Obispo, CA 93401",
      "lat": 35.279109,
      "lng": -120.661709,
      "isIndependent": true,
      "website": "http://www.ccsurf.com",
      "phone": "(805) 541-1129"
    },
    {
      "id": 455,
      "name": "Central Florida Skate",
      "address": "4880A Distribution Ct. Unit 1, Orlando, FL 32822",
      "lat": 28.477977,
      "lng": -81.301055,
      "isIndependent": true,
      "website": "https://centralfloridaskate.com",
      "phone": "(407) 694-1718"
    },
    {
      "id": 432,
      "name": "Central skate supply",
      "address": "13 Central Ave., Ridgely, MD 21660",
      "lat": 38.946787,
      "lng": -75.884096,
      "isIndependent": true,
      "website": "http://www.centralskatesupply.com",
      "phone": "(443) 786-3928"
    },
    {
      "id": 1023,
      "name": "Central Skateshop",
      "address": "2905 N 59th St., Omaha, NE 68104",
      "lat": 41.285271,
      "lng": -96.003433,
      "isIndependent": true,
      "website": "https://www.instagram.com/centralskateshopomaha/"
    },
    {
      "id": 592,
      "name": "Central Studio Skate Shop and Art Studio",
      "address": "1389 Central Ave., Middletown, OH 45044",
      "lat": 39.515014,
      "lng": -84.39899,
      "isIndependent": true,
      "website": "https://www.centralstudiollc.com",
      "phone": "(513) 709-8083"
    },
    {
      "id": 1887,
      "name": "Ceremony Skate Shop",
      "address": "1235 Monterey St., San Luis Obispo, CA 93401",
      "lat": 35.283693,
      "lng": -120.657808,
      "isIndependent": true,
      "website": "http://ceremonyskateshop.com",
      "phone": "(805) 439-0366"
    },
    {
      "id": 1735,
      "name": "Chalet Sports",
      "address": "108 W Main St., Bozeman, MT 59715",
      "lat": 45.679128,
      "lng": -111.039013,
      "isIndependent": true,
      "website": "http://chaletsportsmt.com",
      "phone": "(406) 587-4595"
    },
    {
      "id": 811,
      "name": "Charlottesville Skateshop",
      "address": "1713 Allied Ln. suite a, Charlottesville, VA 22903",
      "lat": 38.041357,
      "lng": -78.477856,
      "isIndependent": true,
      "website": "http://www.cvilleskates.com",
      "phone": "(434) 260-1739"
    },
    {
      "id": 1793,
      "name": "Cheap Skates",
      "address": "1400 W 2nd St. D, Roswell, NM 88201",
      "lat": 33.393684,
      "lng": -104.541572,
      "isIndependent": true,
      "website": "http://www.cheapskaterollerarena.com",
      "phone": "(575) 246-1342"
    },
    {
      "id": 798,
      "name": "Cheapskates",
      "address": "1576 Getwell Rd., Memphis, TN 38111",
      "lat": 35.088699,
      "lng": -89.930636,
      "isIndependent": true,
      "website": "https://www.facebook.com/pages/Cheapskates/122308414460980"
    },
    {
      "id": 1149,
      "name": "Check Your Head Smoke Shop and Gifts",
      "address": "438 E 5th St., Dayton, OH 45402",
      "lat": 39.757071,
      "lng": -84.184569,
      "isIndependent": true,
      "website": "http://www.checkyourheadshop.com",
      "phone": "(937) 262-7082"
    },
    {
      "id": 1771,
      "name": "Cheecharrone Sk8 Shop",
      "address": "125 E Fry Blvd. ste 7a, Sierra Vista, AZ 85635",
      "lat": 31.554959,
      "lng": -110.29844,
      "isIndependent": true,
      "phone": "(520) 255-9079"
    },
    {
      "id": 1260,
      "name": "Cherry Bomb Skates",
      "address": "733 W 13th St. N, Wichita, KS 67203",
      "lat": 37.707758,
      "lng": -97.347999,
      "isIndependent": true,
      "website": "https://www.facebook.com/CherryBombSkates",
      "phone": "(316) 833-9563"
    },
    {
      "id": 36,
      "name": "Cherry Smoke & Skate Shop",
      "address": "418 Cherry Ave., Long Beach, CA 90802",
      "lat": 33.772133,
      "lng": -118.167556,
      "isIndependent": true,
      "website": "https://www.instagram.com/cherrysmk_skateshop/",
      "phone": "(562) 681-1085"
    },
    {
      "id": 1017,
      "name": "Chilly's Pro Shop",
      "address": "9530 Tramway Blvd. NE, Albuquerque, NM 87122",
      "lat": 35.188623,
      "lng": -106.494518,
      "isIndependent": true,
      "website": "https://chillysproshop.com",
      "phone": "(505) 856-7595"
    },
    {
      "id": 1342,
      "name": "CI Records & Skates",
      "address": "112 W Orange St., Lancaster, PA 17603",
      "lat": 40.0391,
      "lng": -76.308513,
      "isIndependent": true,
      "website": "https://www.cirecordsandskates.com",
      "phone": "(717) 391-7865"
    },
    {
      "id": 816,
      "name": "Cinema Skateshop",
      "address": "508 E Main St., Charlottesville, VA 22902",
      "lat": 38.029621,
      "lng": -78.478271,
      "isIndependent": true,
      "website": "http://cinemaskateshop.com",
      "phone": "(434) 367-8992"
    },
    {
      "id": 249,
      "name": "Circle-A Skateboards",
      "address": "380 S 1st St., San Jose, CA 95113",
      "lat": 37.330462,
      "lng": -121.88613,
      "isIndependent": true,
      "phone": "(408) 995-0677"
    },
    {
      "id": 50,
      "name": "Citizen Skate Shop",
      "address": "920 W Wilson Ave., Chicago, IL 60640",
      "lat": 41.965566,
      "lng": -87.653327,
      "isIndependent": true,
      "website": "http://citizenskateshop.com",
      "phone": "(773) 420-9466"
    },
    {
      "id": 228,
      "name": "CityScape",
      "address": "1 E Washington St., Phoenix, AZ 85004",
      "lat": 33.44761,
      "lng": -112.073723,
      "isIndependent": true,
      "website": "https://www.reddevelopment.com/cityscape/?utm_source=google&utm_medium=gmb",
      "phone": "(602) 772-3900"
    },
    {
      "id": 721,
      "name": "Civil Skateboard & Snowboard Shop",
      "address": "86 Main St., East Greenwich, RI 02818",
      "lat": 41.662837,
      "lng": -71.449929,
      "isIndependent": true,
      "website": "http://www.wearecivil.com",
      "phone": "(401) 886-5116"
    },
    {
      "id": 722,
      "name": "Civil Skateboard & Surf Shop",
      "address": "130 Granite St., Westerly, RI 02891",
      "lat": 41.370407,
      "lng": -71.819661,
      "isIndependent": true,
      "website": "http://www.wearecivil.com",
      "phone": "(401) 596-0028"
    },
    {
      "id": 189,
      "name": "Civil Skateboard Shop",
      "address": "231 Westminster St., Providence, RI 02903",
      "lat": 41.823118,
      "lng": -71.412746,
      "isIndependent": true,
      "website": "http://www.wearecivil.com",
      "phone": "(401) 383-1622"
    },
    {
      "id": 1511,
      "name": "Classic Skate Shop",
      "address": "273 E Plumb Ln. #105, Reno, NV 89502",
      "lat": 39.50601,
      "lng": -119.80245,
      "isIndependent": true,
      "phone": "(775) 203-4025"
    },
    {
      "id": 938,
      "name": "Clemente DIY Skate Park",
      "address": "546 Rumsey St. SW, Grand Rapids, MI 49503",
      "lat": 42.947798,
      "lng": -85.682457,
      "isIndependent": true
    },
    {
      "id": 1422,
      "name": "CLOCKWORK",
      "address": "3661 Eisenhower Pkwy # 32, Macon, GA 31206",
      "lat": 32.818218,
      "lng": -83.692741,
      "isIndependent": true,
      "phone": "(478) 477-2898"
    },
    {
      "id": 1423,
      "name": "CLOCKWORK",
      "address": "321 W Broughton St., Savannah, GA 31401",
      "lat": 32.079798,
      "lng": -81.096086,
      "isIndependent": true,
      "website": "https://instagram.com/clockwork_savannah?igshid=OGQ5ZDc2ODk2ZA==",
      "phone": "(912) 777-7177"
    },
    {
      "id": 685,
      "name": "Clockwork Custom Skates, LLC",
      "address": "331 Union St. Suite A6, Clarksville, TN 37040",
      "lat": 36.52468,
      "lng": -87.354356,
      "isIndependent": true,
      "phone": "(931) 494-6390"
    },
    {
      "id": 1433,
      "name": "Coast City Comics & The Fun Box Monster Emporium",
      "address": "634 Congress St., Portland, ME 04101",
      "lat": 43.653378,
      "lng": -70.264525,
      "isIndependent": true,
      "website": "http://www.coastcitycomics.com",
      "phone": "(207) 899-1505"
    },
    {
      "id": 710,
      "name": "Coastal Edge",
      "address": "Next to Maggie McFly’s and Barnes & Noble, 701 Lynnhaven Pkwy, Virginia Beach, VA 23452",
      "lat": 36.817212,
      "lng": -76.06992,
      "isIndependent": true,
      "website": "http://www.coastaledge.com",
      "phone": "(757) 974-9714"
    },
    {
      "id": 716,
      "name": "Coastal Edge 14th Street",
      "address": "1428 Atlantic Ave., Virginia Beach, VA 23451",
      "lat": 36.843005,
      "lng": -75.973887,
      "isIndependent": true,
      "website": "https://www.coastaledge.com",
      "phone": "(757) 600-8559"
    },
    {
      "id": 697,
      "name": "Coastal Edge 21st Street",
      "address": "316 21st St., Virginia Beach, VA 23451",
      "lat": 36.84858,
      "lng": -75.977845,
      "isIndependent": true,
      "website": "https://www.coastaledge.com",
      "phone": "(757) 422-4640"
    },
    {
      "id": 707,
      "name": "Coastal Edge Pembroke Square",
      "address": "4554 Virginia Beach Blvd. Suite 810, Virginia Beach, VA 23462",
      "lat": 36.844936,
      "lng": -76.134337,
      "isIndependent": true,
      "website": "https://www.coastaledge.com",
      "phone": "(757) 499-9155"
    },
    {
      "id": 717,
      "name": "Coastal Edge Red Mill",
      "address": "1157 Nimmo Pkwy, Virginia Beach, VA 23456",
      "lat": 36.75956,
      "lng": -76.010157,
      "isIndependent": true,
      "website": "https://www.coastaledge.com",
      "phone": "(757) 427-5665"
    },
    {
      "id": 1831,
      "name": "Coastal Riders",
      "address": "2443 161A St. Unit 40, Surrey, BC V3Z 0M6, Canada",
      "lat": 49.046756,
      "lng": -122.775378,
      "isIndependent": true,
      "website": "http://www.coastalriders.com",
      "phone": "(604) 531-3176"
    },
    {
      "id": 268,
      "name": "Codex Skate Shop",
      "address": "106 E Florida Ave., Hemet, CA 92543",
      "lat": 33.747749,
      "lng": -116.971383,
      "isIndependent": true,
      "website": "http://codexskateshop.com",
      "phone": "(951) 236-9642"
    },
    {
      "id": 1414,
      "name": "ColaKicks 706",
      "address": "3450 Wrightsboro Rd. Suite 1310, Augusta, GA 30909",
      "lat": 33.466368,
      "lng": -82.080589,
      "isIndependent": true,
      "website": "http://colakicks.com",
      "phone": "(706) 825-1107"
    },
    {
      "id": 1759,
      "name": "Collective",
      "address": "519 N Leroux St., Flagstaff, AZ 86001",
      "lat": 35.203035,
      "lng": -111.647144,
      "isIndependent": true,
      "phone": "(928) 606-6766"
    },
    {
      "id": 1165,
      "name": "Colorful Thoughts",
      "address": "410 Four seasons Town center, Greensboro, NC 27407",
      "lat": 36.039494,
      "lng": -79.837946,
      "isIndependent": true,
      "phone": "(336) 708-4235"
    },
    {
      "id": 1369,
      "name": "Comfort Skateshop",
      "address": "512 Tremont St. D, Chattanooga, TN 37405",
      "lat": 35.066724,
      "lng": -85.29851,
      "isIndependent": true,
      "website": "http://comfortskateshop.com",
      "phone": "(423) 305-0492"
    },
    {
      "id": 496,
      "name": "Commonwealth Skateboarding",
      "address": "1425 SE 20th Ave., Portland, OR 97214",
      "lat": 45.512475,
      "lng": -122.645697,
      "isIndependent": true,
      "website": "https://www.cwskate.com",
      "phone": "(503) 208-2080"
    },
    {
      "id": 1829,
      "name": "Community Board Shop",
      "address": "13439 71a Ave., Surrey, BC V3W 2L2, Canada",
      "lat": 49.132997,
      "lng": -122.849976,
      "isIndependent": true,
      "phone": "(604) 598-1159"
    },
    {
      "id": 764,
      "name": "Community First Igloo Team Store & Pro Shop",
      "address": "3605 Philips Hwy, Jacksonville, FL 32207",
      "lat": 30.292049,
      "lng": -81.633476,
      "isIndependent": true,
      "website": "https://communityfirstigloo.com/venue/team-store-pro-shop",
      "phone": "(904) 399-3223"
    },
    {
      "id": 926,
      "name": "Community Skateshop",
      "address": "139 State St., Auburn, NY 13021",
      "lat": 42.936157,
      "lng": -76.5712,
      "isIndependent": true,
      "website": "https://communityskate.shop",
      "phone": "(315) 209-7711"
    },
    {
      "id": 1929,
      "name": "Como Skate Supply",
      "address": "1206 Business Loop 70 W Suite G, Columbia, MO 65202",
      "lat": 38.966395,
      "lng": -92.355491,
      "isIndependent": true,
      "phone": "(573) 442-9262"
    },
    {
      "id": 1084,
      "name": "Companion Skatepark",
      "address": "255 Mill St. suite b, Taylors, SC 29687",
      "lat": 34.920246,
      "lng": -82.285556,
      "isIndependent": true,
      "website": "http://www.companionskateparkfoundation.org",
      "phone": "(864) 415-9727"
    },
    {
      "id": 1117,
      "name": "Compas Skateshop",
      "address": "140 W Picacho Ave. Suite B, Las Cruces, NM 88005",
      "lat": 32.31679,
      "lng": -106.781218,
      "isIndependent": true,
      "phone": "(575) 332-1689"
    },
    {
      "id": 383,
      "name": "Compound Boardshop",
      "address": "3604 S Osprey Ave., Sarasota, FL 34239",
      "lat": 27.301312,
      "lng": -82.533959,
      "isIndependent": true,
      "website": "https://compoundboardshop.com",
      "phone": "(941) 552-9805"
    },
    {
      "id": 199,
      "name": "Concepts",
      "address": "18 Newbury St., Boston, MA 02116",
      "lat": 42.352086,
      "lng": -71.072178,
      "isIndependent": true,
      "website": "http://www.cncpts.com"
    },
    {
      "id": 269,
      "name": "CONTENDERS Boardshop",
      "address": "1419 N Tustin St. d, Orange, CA 92867",
      "lat": 33.810968,
      "lng": -117.835405,
      "isIndependent": true,
      "website": "http://contendersboardshop.company.site",
      "phone": "(714) 516-9300"
    },
    {
      "id": 191,
      "name": "Cooke's Skate Supply",
      "address": "446 Main St., Wilmington, MA 01887",
      "lat": 42.546156,
      "lng": -71.173084,
      "isIndependent": true,
      "website": "http://www.cookesskatesupply.com",
      "phone": "(978) 657-7586"
    },
    {
      "id": 993,
      "name": "Cool Breeze Skate Shop",
      "address": "983 Little East Neck Rd., West Babylon, NY 11704",
      "lat": 40.722732,
      "lng": -73.357717,
      "isIndependent": true,
      "website": "https://www.coolbreezeli.com",
      "phone": "(631) 422-2103"
    },
    {
      "id": 803,
      "name": "Cordova Skating Center",
      "address": "7970 Club Center Dr., Cordova, TN 38016",
      "lat": 35.164514,
      "lng": -89.796538,
      "isIndependent": true,
      "website": "http://www.memphisskating.com",
      "phone": "(901) 755-0221"
    },
    {
      "id": 769,
      "name": "Core Board Shop",
      "address": "10467 N May Ave., Oklahoma City, OK 73120",
      "lat": 35.575901,
      "lng": -97.567923,
      "isIndependent": true,
      "phone": "(405) 286-5100"
    },
    {
      "id": 966,
      "name": "Core Board Shop",
      "address": "4038 E 11th St., Tulsa, OK 74112",
      "lat": 36.147575,
      "lng": -95.931638,
      "isIndependent": true,
      "phone": "(918) 779-6090"
    },
    {
      "id": 283,
      "name": "Corky's Boardshop",
      "address": "26441 Gratiot Ave., Roseville, MI 48066",
      "lat": 42.490552,
      "lng": -82.941592,
      "isIndependent": true,
      "website": "http://www.corkysboardshop.com",
      "phone": "(586) 775-8270"
    },
    {
      "id": 2145,
      "name": "Corner Store Skate and Screen",
      "address": "255 Lafayette Rd., Seabrook, NH 03874",
      "lat": 42.881306,
      "lng": -70.868062,
      "isIndependent": true,
      "website": "http://www.cornerstoreskateboards.com"
    },
    {
      "id": 70,
      "name": "Cortez Skate Shop",
      "address": "2633 Ferris St., Dallas, TX 75226",
      "lat": 32.775643,
      "lng": -96.777728,
      "isIndependent": true,
      "website": "https://cortezskateshop.com",
      "phone": "(214) 377-8002"
    },
    {
      "id": 854,
      "name": "Cottonwood Board Shop and Cyclery",
      "address": "2594 Bengal Blvd., Salt Lake City, UT 84121",
      "lat": 40.610067,
      "lng": -111.818047,
      "isIndependent": true,
      "website": "http://www.cottonwoodboardshop.com",
      "phone": "(801) 942-1015"
    },
    {
      "id": 1428,
      "name": "Coureur Goods",
      "address": "30 Daniel St., Portsmouth, NH 03801",
      "lat": 43.077318,
      "lng": -70.756931,
      "isIndependent": true,
      "website": "http://www.coureurgoods.com",
      "phone": "(603) 427-8659"
    },
    {
      "id": 1607,
      "name": "Cowell's Beach Surf Shop",
      "address": "30 Front St., Santa Cruz, CA 95060",
      "lat": 36.963286,
      "lng": -122.023797,
      "isIndependent": true,
      "website": "https://www.surfcowells.com",
      "phone": "(831) 427-2355"
    },
    {
      "id": 213,
      "name": "Cowtown Skateboards",
      "address": "5024 N Central Ave., Phoenix, AZ 85012",
      "lat": 33.509824,
      "lng": -112.074157,
      "isIndependent": true,
      "website": "http://www.cowtownskateboards.com",
      "phone": "(602) 212-9687"
    },
    {
      "id": 219,
      "name": "Cowtown Skateboards",
      "address": "215 W University Dr., Tempe, AZ 85281",
      "lat": 33.421574,
      "lng": -111.942595,
      "isIndependent": true,
      "website": "http://www.cowtownskateboards.com",
      "phone": "(480) 379-3605"
    },
    {
      "id": 220,
      "name": "Cowtown Skateboards",
      "address": "5708 W Union Hills Dr., Glendale, AZ 85308",
      "lat": 33.655,
      "lng": -112.183333,
      "isIndependent": true,
      "website": "http://www.cowtownskateboards.com",
      "phone": "(623) 580-5124"
    },
    {
      "id": 223,
      "name": "Cowtown Skateboards",
      "address": "14175 W Indian School Rd. Suite D-2, Goodyear, AZ 85395",
      "lat": 33.484826,
      "lng": -112.365396,
      "isIndependent": true,
      "website": "http://www.cowtownskateboards.com",
      "phone": "(623) 536-2345"
    },
    {
      "id": 2178,
      "name": "Crack House Bar Skateshop",
      "address": "6384 Boul. Saint-Laurent, Montréal, QC H2S 3C4, Canada",
      "lat": 45.52982,
      "lng": -73.60803,
      "isIndependent": true,
      "website": "https://www.crackhouseshop.com",
      "phone": "(438) 380-9777"
    },
    {
      "id": 1218,
      "name": "Crafty Cranks & Board Shop",
      "address": "1405 Ben Sawyer Blvd. #102, Mt Pleasant, SC 29464",
      "lat": 32.79291,
      "lng": -79.855496,
      "isIndependent": true,
      "website": "http://craftycranksandboardshop.com",
      "phone": "(843) 822-3202"
    },
    {
      "id": 638,
      "name": "Crazy Skates USA & Factory Outlet Store",
      "address": "2801 Fortune Cir E Suite C, Indianapolis, IN 46241",
      "lat": 39.725143,
      "lng": -86.254331,
      "isIndependent": true,
      "website": "https://www.crazyskates.com",
      "phone": "(317) 222-6105"
    },
    {
      "id": 839,
      "name": "Crescent Park",
      "address": "Crescent Park Trail, 2300 N Peters St., New Orleans, LA 70117",
      "lat": 29.961588,
      "lng": -90.046169,
      "isIndependent": true,
      "phone": "(504) 636-6400"
    },
    {
      "id": 1938,
      "name": "Crib to Crib Skateboarding Co.",
      "address": "402 1/2 N Main St., Bloomington, IL 61701",
      "lat": 40.481357,
      "lng": -88.993945,
      "isIndependent": true,
      "website": "https://www.cribtocrib.com",
      "phone": "(918) 576-3165"
    },
    {
      "id": 1114,
      "name": "Crooks Skate Shop",
      "address": "5640 Montana Ave. suite j, El Paso, TX 79925",
      "lat": 31.782671,
      "lng": -106.420753,
      "isIndependent": true,
      "website": "http://www.crooksofficial.com",
      "phone": "(915) 775-0493"
    },
    {
      "id": 1118,
      "name": "Crooks Skate Shop east",
      "address": "1791 N Zaragoza Rd. ste E, El Paso, TX 79936",
      "lat": 31.754971,
      "lng": -106.27592,
      "isIndependent": true,
      "website": "http://crooksofficial.com",
      "phone": "(915) 856-0493"
    },
    {
      "id": 251,
      "name": "Crooks Skateboard Shop",
      "address": "3870 Lemon St., Riverside, CA 92501",
      "lat": 33.980263,
      "lng": -117.372308,
      "isIndependent": true,
      "phone": "(951) 840-0034"
    },
    {
      "id": 263,
      "name": "CROWN",
      "address": "591 N McKinley St. #101, Corona, CA 92879",
      "lat": 33.891749,
      "lng": -117.518488,
      "isIndependent": true,
      "website": "http://shopcrownonline.com",
      "phone": "(951) 736-2991"
    },
    {
      "id": 1877,
      "name": "Crush",
      "address": "211 Broad St., Nevada City, CA 95959",
      "lat": 39.262214,
      "lng": -121.017876,
      "isIndependent": true,
      "website": "http://crushnevadacity.com"
    },
    {
      "id": 1878,
      "name": "Crush Rollershop",
      "address": "107 W Main St., Grass Valley, CA 95945",
      "lat": 39.218874,
      "lng": -121.062511,
      "isIndependent": true,
      "website": "http://crushnevadacity.com",
      "phone": "(707) 834-9922"
    },
    {
      "id": 1091,
      "name": "Cruz Outdoors",
      "address": "379 Old Greenville Hwy Unit#105, Clemson, SC 29631",
      "lat": 34.684818,
      "lng": -82.816225,
      "isIndependent": true,
      "website": "https://cruzoutdoors.com",
      "phone": "(864) 722-9330"
    },
    {
      "id": 915,
      "name": "Cullman Skatepark",
      "address": "601 2nd Ave. NE, Cullman, AL 35055",
      "lat": 34.182142,
      "lng": -86.845374,
      "isIndependent": true
    },
    {
      "id": 17,
      "name": "Cultivate Skate Shop",
      "address": "120 Speedwell Ave., Morristown, NJ 07960",
      "lat": 40.801644,
      "lng": -74.481966,
      "isIndependent": true,
      "website": "http://www.cultivateskateshop.com",
      "phone": "(862) 242-8432"
    },
    {
      "id": 1107,
      "name": "Culture Skateshop",
      "address": "1035 Casitas Pass Rd., Carpinteria, CA 93013",
      "lat": 34.396506,
      "lng": -119.513607,
      "isIndependent": true,
      "website": "https://www.carpskatepark.org/shop-1",
      "phone": "(805) 399-4758"
    },
    {
      "id": 691,
      "name": "Cumberland Transit",
      "address": "2807 West End Ave., Nashville, TN 37203",
      "lat": 36.144849,
      "lng": -86.812073,
      "isIndependent": true,
      "website": "https://cumberlandtransit.com",
      "phone": "(615) 321-4069"
    },
    {
      "id": 1290,
      "name": "Curated Hype",
      "address": "2705 N Main St. Suite 110, High Point, NC 27265",
      "lat": 35.99331,
      "lng": -80.032579,
      "isIndependent": true,
      "website": "http://curatedhype.com",
      "phone": "(336) 888-9342"
    },
    {
      "id": 881,
      "name": "Cutting Edge",
      "address": "945 Farmington Ave., Berlin, CT 06037",
      "lat": 41.633019,
      "lng": -72.762776,
      "isIndependent": true,
      "website": "https://www.cuttingedgect.com",
      "phone": "(860) 828-3428"
    },
    {
      "id": 870,
      "name": "Cyrusher E-Bike Outlet - Salt Lake City Flagship Store",
      "address": "1019 E 2100 S, Salt Lake City, UT 84105",
      "lat": 40.725599,
      "lng": -111.861842,
      "isIndependent": true,
      "website": "https://www.cyrusher.com/pages/locations-salt-lake-city",
      "phone": "(385) 267-1145"
    },
    {
      "id": 653,
      "name": "D.L. Decks Skateboard Shop",
      "address": "5569 Ridge Rd., Parma, OH 44129",
      "lat": 41.410083,
      "lng": -81.73422,
      "isIndependent": true,
      "website": "https://dldecks.com",
      "phone": "(216) 372-5223"
    },
    {
      "id": 501,
      "name": "Daddies Board Shop",
      "address": "5909 NE 80th Ave., Portland, OR 97218",
      "lat": 45.565639,
      "lng": -122.581098,
      "isIndependent": true,
      "website": "http://www.daddiesboardshop.com",
      "phone": "(503) 281-5123"
    },
    {
      "id": 1371,
      "name": "Dalton Skate Shop",
      "address": "202 Fort Hill Dr., Dalton, GA 30721",
      "lat": 34.772164,
      "lng": -84.965044,
      "isIndependent": true,
      "website": "http://daltonskateshop.com",
      "phone": "(706) 264-2890"
    },
    {
      "id": 1982,
      "name": "Damage Boardshop",
      "address": "1904 W Superior St., Duluth, MN 55806",
      "lat": 46.768604,
      "lng": -92.121745,
      "isIndependent": true,
      "website": "http://www.damageboardshop.com",
      "phone": "(218) 724-4027"
    },