{
  "shops": [
    {
      "id": 737,
      "name": "21:12 Skateboarding",
      "address": "110 E Center St. Suite 3, Kingsport, TN 37660",
      "lat": 36.547268,
      "lng": -82.559047,
      "isIndependent": true,
      "phone": "(423) 429-7663"
    },
    {
      "id": 812,
      "name": "21st.Century Skateboards Diy",
      "address": "Georgetown Rd., Tilton, IL 61833",
      "lat": 40.097797,
      "lng": -87.636164,
      "isIndependent": true,
      "phone": "(217) 597-0129"
    },
    {
      "id": 335,
      "name": "2Swift Boards",
      "address": "17000 St. Clair Ave., Cleveland, OH 44110",
      "lat": 41.562776,
      "lng": -81.559646,
      "isIndependent": true,
      "website": "https://www.2swiftboards.com"
    },
    {
      "id": 209,
      "name": "303 Boards",
      "address": "1338 E Colfax Ave., Denver, CO 80218",
      "lat": 39.739883,
      "lng": -104.970006,
      "isIndependent": true,
      "website": "http://www.303boards.com",
      "phone": "(303) 860-1303"
    },
    {
      "id": 213,
      "name": "303 Boards The Annex",
      "address": "1288 S Broadway, Denver, CO 80210",
      "lat": 39.693555,
      "lng": -104.987124,
      "isIndependent": true,
      "website": "http://www.303boards.com",
      "phone": "(303) 386-4759"
    },
    {
      "id": 212,
      "name": "303 Boards The Hill",
      "address": "1138 13th St., Boulder, CO 80302",
      "lat": 40.008143,
      "lng": -105.276068,
      "isIndependent": true,
      "website": "http://www.303boards.com",
      "phone": "(720) 667-3695"
    },
    {
      "id": 18,
      "name": "3043 Boardshop",
      "address": "3043 Tweedy Blvd., South Gate, CA 90280",
      "lat": 33.945642,
      "lng": -118.217243,
      "isIndependent": true,
      "phone": "(323) 472-7133"
    },
    {
      "id": 172,
      "name": "35th Avenue Skateboards & Snowboards",
      "address": "28717 Pacific Hwy S, Federal Way, WA 98003",
      "lat": 47.343861,
      "lng": -122.312689,
      "isIndependent": true,
      "website": "http://www.35thave.com",
      "phone": "(253) 839-5202"
    },
    {
      "id": 169,
      "name": "35th North Skate Shop",
      "address": "1100 E Pike St., Seattle, WA 98122",
      "lat": 47.614231,
      "lng": -122.317964,
      "isIndependent": true,
      "website": "http://www.35thnorth.com",
      "phone": "(206) 320-1252"
    },
    {
      "id": 180,
      "name": "3rd Lair Skatepark and Skate Shop",
      "address": "850 Florida Ave. S, Golden Valley, MN 55426",
      "lat": 44.973069,
      "lng": -93.363412,
      "isIndependent": true,
      "website": "https://www.3rdlair.com",
      "phone": "(763) 797-5283"
    },
    {
      "id": 205,
      "name": "3rd Street Skate Supply",
      "address": "110 3rd St. SW, Winter Haven, FL 33880",
      "lat": 28.021135,
      "lng": -81.730411,
      "isIndependent": true,
      "website": "https://www.facebook.com/3rdstskatesupply/",
      "phone": "(863) 268-2556"
    },
    {
      "id": 374,
      "name": "4Seasons Skate Park of Milwaukee",
      "address": "200 N 25th St., Milwaukee, WI 53233",
      "lat": 43.033108,
      "lng": -87.942508,
      "isIndependent": true,
      "phone": "(414) 933-7275"
    },
    {
      "id": 602,
      "name": "5 Finger Longboards",
      "address": "3728 S 100 W, Logan, UT 84321",
      "lat": 41.665091,
      "lng": -111.835689,
      "isIndependent": true,
      "phone": "(801) 867-7088"
    },
    {
      "id": 751,
      "name": "505 SHREDZ SKATE SHOP LLC",
      "address": "211 W Main St., Farmington, NM 87401",
      "lat": 36.728781,
      "lng": -108.207164,
      "isIndependent": true,
      "website": "http://505shredzskateshop.com",
      "phone": "(505) 210-3420"
    },
    {
      "id": 599,
      "name": "5050 Bike & Skate",
      "address": "1485 W Hill Field Rd. #205, Layton, UT 84041",
      "lat": 41.069691,
      "lng": -111.991565,
      "isIndependent": true,
      "website": "http://www.5050bikeandskate.com",
      "phone": "(801) 546-2691"
    },
    {
      "id": 132,
      "name": "510 Skateboarding",
      "address": "2506 Telegraph Ave., Berkeley, CA 94704",
      "lat": 37.864876,
      "lng": -122.258753,
      "isIndependent": true,
      "website": "http://www.510skateboarding.com",
      "phone": "(510) 843-1863"
    },
    {
      "id": 241,
      "name": "5150 Skate Shop",
      "address": "1158-B River Hwy, Mooresville, NC 28117",
      "lat": 35.60463,
      "lng": -80.9099,
      "isIndependent": true,
      "website": "https://5150skateshop.com",
      "phone": "(704) 314-5545"
    },
    {
      "id": 494,
      "name": "518 SK8 and HOBBY",
      "address": "Located next to Sterling Optical, 22 Clifton Country Rd. #46, Clifton Park, NY 12065",
      "lat": 42.859508,
      "lng": -73.780309,
      "isIndependent": true,
      "website": "http://www.518sk8andhobby.com",
      "phone": "(518) 280-6426"
    },
    {
      "id": 593,
      "name": "608 Skate",
      "address": "917 Williamson St., Madison, WI 53703",
      "lat": 43.079804,
      "lng": -89.368966,
      "isIndependent": true,
      "website": "https://608skate.com"
    },
    {
      "id": 651,
      "name": "707 ChopA SK8",
      "address": "1608 Sonoma Blvd., Vallejo, CA 94590",
      "lat": 38.100455,
      "lng": -122.254832,
      "isIndependent": true,
      "website": "http://707chopask8.bigcartel.com",
      "phone": "(707) 210-5261"
    },
    {
      "id": 545,
      "name": "77 Surf & Skate",
      "address": "2100 Padre Blvd. Unit 4, South Padre Island, TX 78597",
      "lat": 26.100029,
      "lng": -97.165958,
      "isIndependent": true,
      "website": "http://www.77surf.com",
      "phone": "(956) 433-9770"
    },
    {
      "id": 795,
      "name": "805 Boardshop",
      "address": "6100 El Camino Real, Atascadero, CA 93422",
      "lat": 35.488781,
      "lng": -120.669944,
      "isIndependent": true,
      "website": "http://www.805boardshop.com",
      "phone": "(805) 464-2545"
    },
    {
      "id": 523,
      "name": "805 Skateshop",
      "address": "2235 First St. #120, Simi Valley, CA 93065",
      "lat": 34.275765,
      "lng": -118.779789,
      "isIndependent": true,
      "website": "https://805skateshop.com",
      "phone": "(805) 630-8734"
    },
    {
      "id": 525,
      "name": "818 Skate Shop",
      "address": "17015 Chatsworth St., Granada Hills, CA 91344",
      "lat": 34.264928,
      "lng": -118.502846,
      "isIndependent": true,
      "website": "http://818skate.com",
      "phone": "(818) 363-3675"
    },
    {
      "id": 636,
      "name": "A Skaters Dream",
      "address": "2205 Jolly Rd. Ste E1, Okemos, MI 48864",
      "lat": 42.682265,
      "lng": -84.430687,
      "isIndependent": true,
      "phone": "(989) 627-7240"
    },
    {
      "id": 551,
      "name": "Above Board Skatepark and Skate Shop",
      "address": "2616 Greengate Dr., Greensboro, NC 27406",
      "lat": 36.02411,
      "lng": -79.799193,
      "isIndependent": true,
      "website": "https://www.aboveboardskate.com",
      "phone": "(336) 333-5800"
    },
    {
      "id": 743,
      "name": "Actionball Boardsports",
      "address": "210 Grand Ave., Laramie, WY 82070",
      "lat": 41.31093,
      "lng": -105.594401,
      "isIndependent": true
    },
    {
      "id": 480,
      "name": "ADT Bike & Skate Shop (Arc De Triomphe Inc)",
      "address": "114-01 Jamaica Ave., Richmond Hill, NY 11418",
      "lat": 40.698441,
      "lng": -73.83476,
      "isIndependent": true,
      "website": "http://adtbikes.com",
      "phone": "(718) 846-2099"
    },
    {
      "id": 179,
      "name": "After Hours Skateshop",
      "address": "251 Snelling Ave. S, St. Paul, MN 55105",
      "lat": 44.933868,
      "lng": -93.167391,
      "isIndependent": true,
      "website": "http://afterhoursskateshop.com",
      "phone": "(651) 340-8535"
    },
    {
      "id": 136,
      "name": "Alcosta Smoke and Skate",
      "address": "1389 N Broadway, Walnut Creek, CA 94596",
      "lat": 37.899311,
      "lng": -122.059996,
      "isIndependent": true,
      "website": "https://quickvee.com/merchant/SAM85178CA?orderMethod=pickup",
      "phone": "(925) 334-1340"
    },
    {
      "id": 167,
      "name": "All-A-Board Boardshop",
      "address": "1107 River Rd., Puyallup, WA 98371",
      "lat": 47.202909,
      "lng": -122.309245,
      "isIndependent": true,
      "website": "http://www.allaboardskate.com",
      "phone": "(253) 514-2084"
    },
    {
      "id": 797,
      "name": "Alliance Board Co",
      "address": "1233 Park St., Paso Robles, CA 93446",
      "lat": 35.627495,
      "lng": -120.690357,
      "isIndependent": true,
      "website": "http://www.allianceboardcompany.com",
      "phone": "(805) 238-2600"
    },
    {
      "id": 592,
      "name": "Alumni Boardshop",
      "address": "1150 Williamson St., Madison, WI 53703",
      "lat": 43.083291,
      "lng": -89.364695,
      "isIndependent": true,
      "website": "https://alumniskateboarding.square.site"
    },
    {
      "id": 286,
      "name": "Always Boardshop",
      "address": "3856 PA-31, Jones Mills, PA 15646",
      "lat": 40.097834,
      "lng": -79.358832,
      "isIndependent": true,
      "website": "https://alwaysboardshop.com",
      "phone": "(724) 593-7800"
    },
    {
      "id": 790,
      "name": "AMPT Skate Shop",
      "address": "1040 H St., Arcata, CA 95521",
      "lat": 40.87015,
      "lng": -124.086223,
      "isIndependent": true,
      "website": "https://www.amptskateshop.com",
      "phone": "(707) 822-9500"
    },
    {
      "id": 202,
      "name": "Anchor Skate Supply",
      "address": "501 16th St. S, St. Petersburg, FL 33705",
      "lat": 27.765444,
      "lng": -82.655129,
      "isIndependent": true,
      "website": "http://anchorskatesupply.com",
      "phone": "(727) 623-4580"
    },
    {
      "id": 840,
      "name": "Anchors Skateshop",
      "address": "7123 US-98, Panama City Beach, FL 32407",
      "lat": 30.187106,
      "lng": -85.762108,
      "isIndependent": true,
      "website": "https://anchorsskateshop.com",
      "phone": "(850) 249-9993"
    },
    {
      "id": 156,
      "name": "Anime to Skateboards",
      "address": "13587 Eureka Rd., Southgate, MI 48195",
      "lat": 42.198326,
      "lng": -83.189309,
      "isIndependent": true,
      "website": "http://www.animetoskateboards.com",
      "phone": "(734) 246-5877"
    },
    {
      "id": 824,
      "name": "Anthem Skatepark and Board Shop",
      "address": "800 W 5th St., Winona, MN 55987",
      "lat": 44.054356,
      "lng": -91.658347,
      "isIndependent": true,
      "website": "http://anthemskateshop.com",
      "phone": "(507) 453-1642"
    },
    {
      "id": 76,
      "name": "Antics Skateshop",
      "address": "139 E Atlantic Ave., Haddon Heights, NJ 08035",
      "lat": 39.88272,
      "lng": -75.058493,
      "isIndependent": true,
      "website": "http://anticsskateshop.com",
      "phone": "(856) 436-0552"
    },
    {
      "id": 774,
      "name": "Antisocial Skateboard Shop",
      "address": "1965 Main St., Vancouver, BC V5T 3C1, Canada",
      "lat": 49.267682,
      "lng": -123.101377,
      "isIndependent": true,
      "website": "https://www.antisocialshopworldwide.com",
      "phone": "(604) 708-5678"
    },
    {
      "id": 397,
      "name": "Apex Outfitter & Board Co.",
      "address": "225 N Salem St., Apex, NC 27502",
      "lat": 35.732535,
      "lng": -78.850445,
      "isIndependent": true,
      "website": "http://www.apexoutfitter.com",
      "phone": "(919) 267-9353"
    },
    {
      "id": 606,
      "name": "Apocalyptic Board Shop",
      "address": "3016 Valdez Dr., Des Moines, IA 50310",
      "lat": 41.637446,
      "lng": -93.660021,
      "isIndependent": true,
      "phone": "(712) 249-3907"
    },
    {
      "id": 258,
      "name": "Apparition Skateboards",
      "address": "1906 Guadalupe St. Unit 2, Austin, TX 78705",
      "lat": 30.282463,
      "lng": -97.742262,
      "isIndependent": true,
      "website": "http://apparitionskateboards.com",
      "phone": "(512) 459-7827"
    },
    {
      "id": 553,
      "name": "ARC Skate Shop and Body Piercing",
      "address": "428 W Kings Hwy, Eden, NC 27288",
      "lat": 36.490529,
      "lng": -79.754138,
      "isIndependent": true,
      "website": "http://arcskate.com",
      "phone": "(336) 635-9350"
    },
    {
      "id": 187,
      "name": "arts-rec Skate Shop (Barrio Logan)",
      "address": "2161 Logan Ave., San Diego, CA 92113",
      "lat": 32.698321,
      "lng": -117.140044,
      "isIndependent": true,
      "website": "http://www.artsandrecstore.com",
      "phone": "(619) 892-7568"
    },
    {
      "id": 708,
      "name": "Artsy Chica Boutique/Roll Forever Skate Shop",
      "address": "106 Third St., San Juan Bautista, CA 95045",
      "lat": 36.8439,
      "lng": -121.535416,
      "isIndependent": true
    },
    {
      "id": 819,
      "name": "Ashwaubenon Boardwalk LLC",
      "address": "480 Pilgrim Way # 1200, Green Bay, WI 54304",
      "lat": 44.479123,
      "lng": -88.052683,
      "isIndependent": true,
      "phone": "(920) 430-1467"
    },
    {
      "id": 206,
      "name": "Astro Skate of Brandon",
      "address": "750 W Robertson St., Brandon, FL 33511",
      "lat": 27.936701,
      "lng": -82.295921,
      "isIndependent": true,
      "website": "https://astroskatingcenter.com/brandon-florida/",
      "phone": "(813) 681-3635"
    },
    {
      "id": 39,
      "name": "Asylum Skate Park",
      "address": "388 S Curran Rd., Round Lake, IL 60073",
      "lat": 42.340164,
      "lng": -88.088783,
      "isIndependent": true,
      "website": "http://www.asylumskatepark.com",
      "phone": "(847) 578-5103"
    },
    {
      "id": 342,
      "name": "Atlas Skateboard Store",
      "address": "209 2nd Ave., San Mateo, CA 94401",
      "lat": 37.565976,
      "lng": -122.323887,
      "isIndependent": true,
      "website": "http://www.atlasskateboarding.com",
      "phone": "(650) 401-7110"
    },
    {
      "id": 150,
      "name": "Attic Skate Shop",
      "address": "2588 Newport Blvd. # B, Costa Mesa, CA 92627",
      "lat": 33.662367,
      "lng": -117.89714,
      "isIndependent": true,
      "website": "http://atticskateshop.com",
      "phone": "(949) 645-3457"
    },
    {
      "id": 527,
      "name": "Ave Skate Shop",
      "address": "530 Moorpark Ave. #180, Moorpark, CA 93021",
      "lat": 34.28436,
      "lng": -118.881724,
      "isIndependent": true,
      "phone": "(805) 517-0054"
    },
    {
      "id": 466,
      "name": "Avenue Skateshop",
      "address": "221 N Muskogee Ave., Tahlequah, OK 74464",
      "lat": 35.91513,
      "lng": -94.970229,
      "isIndependent": true,
      "phone": "(918) 814-2649"
    },
    {
      "id": 472,
      "name": "Awake Skate Shop",
      "address": "260 N Ashland Ave., Lindsay, CA 93247",
      "lat": 36.202977,
      "lng": -119.09467,
      "isIndependent": true,
      "website": "https://www.awakeskateshop.com",
      "phone": "(559) 853-8715"
    },
    {
      "id": 748,
      "name": "AZ Wood On Wheels Board Supply Shoes & Apparel",
      "address": "6480 E State Rte 69, Prescott Valley, AZ 86314",
      "lat": 34.582128,
      "lng": -112.351568,
      "isIndependent": true,
      "website": "https://m.facebook.com/yolanda.moneglia.54?ref=bookmarks",
      "phone": "(928) 759-0901"
    },
    {
      "id": 487,
      "name": "B&B Skate Shop",
      "address": "7123 Harrison St., La Vista, NE 68128",
      "lat": 41.190406,
      "lng": -96.022777,
      "isIndependent": true,
      "phone": "(402) 606-2638"
    },
    {
      "id": 846,
      "name": "Backdoor Skateshop",
      "address": "222 E 5th St., Greenville, NC 27858",
      "lat": 35.610711,
      "lng": -77.371093,
      "isIndependent": true,
      "website": "https://backdoorskateshop.com",
      "phone": "(252) 758-7467"
    },
    {
      "id": 645,
      "name": "Backwoods Snowboards & Skateboards",
      "address": "1 Garfield Rd., Auburn, ME 04210",
      "lat": 44.081348,
      "lng": -70.270182,
      "isIndependent": true,
      "website": "http://www.ridebackwoods.com",
      "phone": "(207) 344-6622"
    },
    {
      "id": 175,
      "name": "Backyard Boards Skate Shop",
      "address": "17414 Furman St. SW, Rochester, WA 98579",
      "lat": 46.834281,
      "lng": -123.058549,
      "isIndependent": true,
      "phone": "(206) 859-8363"
    },
    {
      "id": 414,
      "name": "Bad Dog Boards",
      "address": "2416 Meadow Rd., Louisville, KY 40205",
      "lat": 38.22767,
      "lng": -85.680075,
      "isIndependent": true,
      "phone": "(502) 836-4035"
    },
    {
      "id": 144,
      "name": "BANNED Skate Shop",
      "address": "1200 Arizona St. b5, Redlands, CA 92374",
      "lat": 34.068413,
      "lng": -117.206678,
      "isIndependent": true,
      "website": "http://www.bannedskateshop.com",
      "phone": "(909) 793-7070"
    },
    {
      "id": 204,
      "name": "BARBER SKATE SHOP",
      "address": "717 N Kentucky Ave., Lakeland, FL 33801",
      "lat": 28.050951,
      "lng": -81.955081,
      "isIndependent": true,
      "website": "http://barberskateshop.com",
      "phone": "(863) 816-5733"
    },
    {
      "id": 714,
      "name": "Basement Sk8 Shop",
      "address": "59 Hanover St., Lebanon, NH 03766",
      "lat": 43.643989,
      "lng": -72.254038,
      "isIndependent": true
    },
    {
      "id": 536,
      "name": "Bazaar Skateshop",
      "address": "342 Adams Ave. # 2, Scranton, PA 18503",
      "lat": 41.409047,
      "lng": -75.659932,
      "isIndependent": true,
      "phone": "(570) 909-9143"
    },
    {
      "id": 267,
      "name": "BDK's Boardshop",
      "address": "39090 Pioneer Blvd. Suite A, Sandy, OR 97055",
      "lat": 45.396146,
      "lng": -122.260845,
      "isIndependent": true,
      "website": "http://www.bdkboardshop.com",
      "phone": "(503) 826-8301"
    },
    {
      "id": 793,
      "name": "Beaches Boutique & Main Street Skate",
      "address": "656 Chetco Ave., Brookings, OR 97415",
      "lat": 42.052523,
      "lng": -124.282862,
      "isIndependent": true,
      "phone": "(541) 469-5036"
    },
    {
      "id": 634,
      "name": "Beaver Boardshop",
      "address": "1440 Riverside Dr., Beaver, PA 15009",
      "lat": 40.709943,
      "lng": -80.298288,
      "isIndependent": true,
      "website": "http://www.beaverboardshop.com",
      "phone": "(724) 252-2328"
    },
    {
      "id": 207,
      "name": "Beehive Skate Shop",
      "address": "2272 S Broadway, Denver, CO 80210",
      "lat": 39.675242,
      "lng": -104.987306,
      "isIndependent": true,
      "website": "http://beehiveskatedenver.com",
      "phone": "(303) 632-9520"
    },
    {
      "id": 373,
      "name": "Belle City Boardshop",
      "address": "1913 Taylor Ave., Racine, WI 53403",
      "lat": 42.706976,
      "lng": -87.808712,
      "isIndependent": true,
      "website": "http://bellecityboards.com",
      "phone": "(262) 456-7067"
    },
    {
      "id": 718,
      "name": "Berg's Ski and Snowboard Shop",
      "address": "367 W 13th Ave., Eugene, OR 97401",
      "lat": 44.045824,
      "lng": -123.09833,
      "isIndependent": true,
      "website": "http://www.bergsskishop.com",
      "phone": "(541) 683-1300"
    },
    {
      "id": 435,
      "name": "Bertelli's Skate Shop",
      "address": "726 Main St., West Springfield, MA 01089",
      "lat": 42.100529,
      "lng": -72.606419,
      "isIndependent": true,
      "website": "https://www.bertellisskateshop.com",
      "phone": "(413) 736-0633"
    },
    {
      "id": 62,
      "name": "Bethesda Scooters & Boards LLC. T/A Bethesda Boards",
      "address": "7900 Woodmont Ave., Bethesda, MD 20814",
      "lat": 38.988952,
      "lng": -77.096346,
      "isIndependent": true,
      "website": "https://www.bethesdaboards.com",
      "phone": "(301) 654-7710"
    },
    {
      "id": 94,
      "name": "Big Poppa's Skate Shop",
      "address": "8572 Hickory Flat Hwy, Woodstock, GA 30188",
      "lat": 34.148167,
      "lng": -84.398232,
      "isIndependent": true,
      "website": "https://bigpoppas.shop",
      "phone": "(678) 480-8219"
    },
    {
      "id": 370,
      "name": "BIGFOOT BIKE AND SKATE LLC",
      "address": "N48W13334 Hampton Rd., Menomonee Falls, WI 53051",
      "lat": 43.105394,
      "lng": -88.077633,
      "isIndependent": true,
      "website": "https://www.bigfootbikeandskate.com",
      "phone": "(414) 332-3479"
    },
    {
      "id": 575,
      "name": "Bikes & Boards",
      "address": "4480 Commercial Dr., New Hartford, NY 13413",
      "lat": 43.083146,
      "lng": -75.321881,
      "isIndependent": true,
      "website": "https://m.facebook.com/BikesBoardsCNY/",
      "phone": "(315) 768-1190"
    },
    {
      "id": 64,
      "name": "Bikes & Skates",
      "address": "712 Ritchie Rd., Capitol Heights, MD 20743",
      "lat": 38.879525,
      "lng": -76.858226,
      "isIndependent": true,
      "website": "http://www.bikeskatebowl.com",
      "phone": "(301) 333-2453"
    },
    {
      "id": 343,
      "name": "Bill's Wheels Skateshop",
      "address": "1240 Soquel Ave., Santa Cruz, CA 95062",
      "lat": 36.980358,
      "lng": -122.00909,
      "isIndependent": true,
      "website": "http://billswheels.com",
      "phone": "(831) 469-0904"
    },
    {
      "id": 571,
      "name": "Black Mamba Skate Park",
      "address": "1 Lepage Pl., Syracuse, NY 13206",
      "lat": 43.072389,
      "lng": -76.099184,
      "isIndependent": true,
      "website": "http://blackmambaskatepark.com",
      "phone": "(315) 307-2758"
    },
    {
      "id": 168,
      "name": "Black Market Skates",
      "address": "8114 Aurora Ave. N, Seattle, WA 98103",
      "lat": 47.688127,
      "lng": -122.344282,
      "isIndependent": true,
      "website": "http://www.blackmarketskates.com",
      "phone": "(206) 930-8851"
    },
    {
      "id": 519,
      "name": "BlackHole SkateShop",
      "address": "427 N Ventura Ave., Ventura, CA 93001",
      "lat": 34.286485,
      "lng": -119.299428,
      "isIndependent": true,
      "website": "http://blackholeskate.com",
      "phone": "(805) 628-3389"
    },
    {
      "id": 299,
      "name": "Blacklist Boardshop",
      "address": "772 E McMillan St. Unit 2, Cincinnati, OH 45206",
      "lat": 39.126183,
      "lng": -84.491781,
      "isIndependent": true,
      "website": "https://blacklistboardshop.com",
      "phone": "(513) 861-8666"
    },
    {
      "id": 305,
      "name": "Blacklist Boardshop",
      "address": "233 Walnut St., Lawrenceburg, IN 47025",
      "lat": 39.093816,
      "lng": -84.849473,
      "isIndependent": true,
      "website": "http://www.blacklistboardshop.com",
      "phone": "(812) 537-5483"
    },
    {
      "id": 574,
      "name": "Bladz Skate Shop Belleville (Aqua Bay)",
      "address": "Inside Aqua Bay, 223 Cannifton Rd. N Suite 2, Cannifton, ON K0K 1K0, Canada",
      "lat": 44.206104,
      "lng": -77.392102,
      "isIndependent": true,
      "website": "https://aquabay.com/belleville-bladz/",
      "phone": "(613) 962-2415"
    },
    {
      "id": 511,
      "name": "Blazer Skate & Moto",
      "address": "1212 Laurens Rd., Greenville, SC 29607",
      "lat": 34.845884,
      "lng": -82.368009,
      "isIndependent": true,
      "website": "https://www.facebook.com/blazerskateshop/",
      "phone": "(864) 242-4456"
    },
    {
      "id": 683,
      "name": "Blissed Out Skate Shop",
      "address": "1313 S Carson St., Carson City, NV 89701",
      "lat": 39.155742,
      "lng": -119.765599,
      "isIndependent": true,
      "website": "https://blissed-out-skate-shop.myshopify.com",
      "phone": "(775) 781-0258"
    },
    {
      "id": 817,
      "name": "Blue Dragon Skate Shop",
      "address": "714 Appleton Rd. Unit B, Menasha, WI 54952",
      "lat": 44.21111,
      "lng": -88.437591,
      "isIndependent": true,
      "website": "https://www.bluedragonskate.com",
      "phone": "(920) 486-1694"
    },
    {
      "id": 637,
      "name": "Blue Planet Boardsports",
      "address": "3019 E Michigan Ave., Jackson, MI 49202",
      "lat": 42.255114,
      "lng": -84.366131,
      "isIndependent": true,
      "website": "https://www.facebook.com/Blueplanetboard",
      "phone": "(517) 416-9110"
    },
    {
      "id": 208,
      "name": "BLUECAR Skate Shop",
      "address": "7827 W Jewell Ave., Lakewood, CO 80232",
      "lat": 39.682487,
      "lng": -105.085815,
      "isIndependent": true,
      "website": "https://bluecarskateshop.myshopify.com",
      "phone": "(661) 993-1582"
    },
    {
      "id": 547,
      "name": "Bluetile Skateboards",
      "address": "621-23 Harden St., Columbia, SC 29205",
      "lat": 33.998108,
      "lng": -81.01591,
      "isIndependent": true,
      "website": "http://www.bluetilesc.com",
      "phone": "(803) 376-1880"
    },
    {
      "id": 576,
      "name": "Bluetile Skateboards",
      "address": "49 Spring St. a, Charleston, SC 29403",
      "lat": 32.792175,
      "lng": -79.942883,
      "isIndependent": true,
      "website": "https://bluetilesc.com",
      "phone": "(843) 577-2758"
    },
    {
      "id": 460,
      "name": "BLX Skateboard Shop",
      "address": "197 E Toole Ave., Tucson, AZ 85701",
      "lat": 32.224833,
      "lng": -110.968876,
      "isIndependent": true,
      "website": "https://blxskateshop.com",
      "phone": "(520) 623-3541 ext. 403"
    },
    {
      "id": 667,
      "name": "Board House",
      "address": "505 N Alister St., Port Aransas, TX 78373",
      "lat": 27.836627,
      "lng": -97.061276,
      "isIndependent": true,
      "website": "http://www.boardhousesurfshop.com",
      "phone": "(361) 749-3100"
    },
    {
      "id": 753,
      "name": "Board House and Bike Shop",
      "address": "1137 Mechem Dr., Ruidoso, NM 88345",
      "lat": 33.36678,
      "lng": -105.665772,
      "isIndependent": true,
      "phone": "(575) 808-8991"
    },
    {
      "id": 738,
      "name": "Board Of Missoula",
      "address": "618 S Higgins Ave., Missoula, MT 59801",
      "lat": 46.865417,
      "lng": -113.997137,
      "isIndependent": true,
      "website": "https://boardofmissoula.com",
      "phone": "(406) 721-7774"
    },
    {
      "id": 427,
      "name": "Board of Provo",
      "address": "465 N University Ave., Provo, UT 84601",
      "lat": 40.239978,
      "lng": -111.658926,
      "isIndependent": true,
      "website": "http://www.boardofprovo.com",
      "phone": "(801) 356-3185"
    },
    {
      "id": 138,
      "name": "Board Shops of America",
      "address": "10220 Hole Ave. STE 6, Riverside, CA 92503",
      "lat": 33.914458,
      "lng": -117.461925,
      "isIndependent": true,
      "phone": "(951) 351-1015"
    },
    {
      "id": 770,
      "name": "Boarder Labs and CalStreets",
      "address": "1754 W 4th Ave., Vancouver, BC V6J 1M1, Canada",
      "lat": 49.267792,
      "lng": -123.144492,
      "isIndependent": true,
      "website": "http://longboarderlabs.com",
      "phone": "(778) 383-1199"
    },
    {
      "id": 647,
      "name": "Boarder Patrol",
      "address": "2399 White Mountain Hwy, North Conway, NH 03860",
      "lat": 44.045269,
      "lng": -71.124444,
      "isIndependent": true,
      "website": "http://boarder-patrol.lany.io",
      "phone": "(603) 356-5885"
    },
    {
      "id": 140,
      "name": "Boarders (skateshop)",
      "address": "777 Plaza Dr., West Covina, CA 91790",
      "lat": 34.070845,
      "lng": -117.932288,
      "isIndependent": true,
      "website": "http://www.boardersla.com",
      "phone": "(626) 472-0099"
    },
    {
      "id": 520,
      "name": "Boarders (skateshop)",
      "address": "6600 Topanga Canyon Blvd., Canoga Park, CA 91303",
      "lat": 34.191164,
      "lng": -118.604336,
      "isIndependent": true,
      "website": "https://boardersla.com",
      "phone": "(818) 226-0008"
    },
    {
      "id": 521,
      "name": "Boarders (skateshop)",
      "address": "9301 Tampa Ave. #192, Northridge, CA 91324",
      "lat": 34.238055,
      "lng": -118.556887,
      "isIndependent": true,
      "website": "http://boardersla.com",
      "phone": "(818) 341-0054"
    },
    {
      "id": 652,
      "name": "Boardgarden",
      "address": "2740 Jefferson St., Napa, CA 94558",
      "lat": 38.313188,
      "lng": -122.29664,
      "isIndependent": true,
      "phone": "(707) 253-7949"
    },
    {
      "id": 550,
      "name": "Boardparadise Store",
      "address": "1206 E Wendover Ave. Suite A, Greensboro, NC 27405",
      "lat": 36.087407,
      "lng": -79.76977,
      "isIndependent": true,
      "website": "https://www.boardparadise.com",
      "phone": "(336) 545-6115"
    },
    {
      "id": 563,
      "name": "Boards 'N More",
      "address": "320 Oak St., Brentwood, CA 94513",
      "lat": 37.932256,
      "lng": -121.695244,
      "isIndependent": true,
      "website": "https://www.boardsnmore.com",
      "phone": "(925) 240-5653"
    },
    {
      "id": 29,
      "name": "Boardwalk Skate & Surf",
      "address": "401, 401 Ocean Front Walk, Venice, CA 90291",
      "lat": 33.993944,
      "lng": -118.479725,
      "isIndependent": true,
      "website": "https://boardwalkskate.myshopify.com",
      "phone": "(310) 450-6634"
    },
    {
      "id": 585,
      "name": "Boise Skateboard supply",
      "address": "10383 Fairview Ave., Boise, ID 83704",
      "lat": 43.618319,
      "lng": -116.311028,
      "isIndependent": true,
      "phone": "(208) 283-0001"
    },
    {
      "id": 470,
      "name": "boneyard skate shop",
      "address": "40120 CA-41 STE H, Oakhurst, CA 93644",
      "lat": 37.332377,
      "lng": -119.654862,
      "isIndependent": true
    },
    {
      "id": 103,
      "name": "Born To Skate Co",
      "address": "171 Auburn Ave. NE, Atlanta, GA 30303",
      "lat": 33.755417,
      "lng": -84.381587,
      "isIndependent": true,
      "phone": "(800) 804-9231"
    },
    {
      "id": 273,
      "name": "Boulevard Skate Shop",
      "address": "2309 K St. Suite 100, Sacramento, CA 95816",
      "lat": 38.57465,
      "lng": -121.475804,
      "isIndependent": true,
      "phone": "(916) 806-7566"
    },
    {
      "id": 596,
      "name": "Brandli's Skate Haus",
      "address": "508 17th Ave., Monroe, WI 53566",
      "lat": 42.60741,
      "lng": -89.638139,
      "isIndependent": true,
      "phone": "(608) 325-6681"
    },
    {
      "id": 323,
      "name": "Brasshouse Boardroom",
      "address": "303 N Trimble Rd., Mansfield, OH 44906",
      "lat": 40.76748,
      "lng": -82.551952,
      "isIndependent": true
    },
    {
      "id": 124,
      "name": "Break Free SkateShop",
      "address": "1212 Webster St., Oakland, CA 94612",
      "lat": 37.802257,
      "lng": -122.269328,
      "isIndependent": true,
      "website": "http://breakfreeskateshop.com",
      "phone": "(510) 817-4450"
    },
    {
      "id": 449,
      "name": "Breaking Free Skatepark",
      "address": "1044 University Ave., Rochester, NY 14607",
      "lat": 43.154204,
      "lng": -77.573676,
      "isIndependent": true,
      "website": "http://www.breakingfreeskatepark.com",
      "phone": "(585) 271-7277"
    },
    {
      "id": 705,
      "name": "Brian's Skate Shop",
      "address": "137 Community Dr. C, Ozark, AL 36360",
      "lat": 31.453727,
      "lng": -85.637746,
      "isIndependent": true,
      "website": "http://www.briansskateshop.com",
      "phone": "(334) 445-3459"
    },
    {
      "id": 851,
      "name": "Bristol Skateway",
      "address": "210 Skateway Dr., Bristol, TN 37620",
      "lat": 36.590443,
      "lng": -82.214789,
      "isIndependent": true,
      "website": "http://bristolskateway.com",
      "phone": "(423) 968-9680"
    },
    {
      "id": 619,
      "name": "BROKE SK8",
      "address": "1810 E Sprague Ave., Spokane, WA 99202",
      "lat": 47.657116,
      "lng": -117.383755,
      "isIndependent": true,
      "website": "https://www.facebook.com/profile.php?id=61574204895437",
      "phone": "(509) 723-5821"
    },
    {
      "id": 95,
      "name": "Brook Run Skate Shop",
      "address": "4770 N Peachtree Rd., Dunwoody, GA 30338",
      "lat": 33.934996,
      "lng": -84.297404,
      "isIndependent": true,
      "phone": "(404) 279-2577"
    },
    {
      "id": 649,
      "name": "Brotherhood Board Shop",
      "address": "1422 Mendocino Ave., Santa Rosa, CA 95401",
      "lat": 38.453796,
      "lng": -122.717219,
      "isIndependent": true,
      "website": "http://www.brotherhoodboard.com",
      "phone": "(707) 546-0660"
    },
    {
      "id": 333,
      "name": "Brunswick Skate Station",
      "address": "1261 Industrial Pkwy N # 4, Brunswick, OH 44212",
      "lat": 41.241436,
      "lng": -81.794578,
      "isIndependent": true,
      "website": "http://www.skatestation.net",
      "phone": "(330) 225-9842"
    },
    {
      "id": 166,
      "name": "Brush Alley Skateshop",
      "address": "408 S Saginaw St., Flint, MI 48502",
      "lat": 43.016506,
      "lng": -83.691669,
      "isIndependent": true,
      "website": "http://brushalleyskateshop.com",
      "phone": "(810) 820-9031"
    },
    {
      "id": 375,
      "name": "BS The Board Shop",
      "address": "259 Broad St., Lake Geneva, WI 53147",
      "lat": 42.592489,
      "lng": -88.434974,
      "isIndependent": true,
      "website": "http://www.bswake.com",
      "phone": "(262) 248-1703"
    },
    {
      "id": 573,
      "name": "BSE Skateboard Shop + Coffee Bar",
      "address": "225 Princess St., Kingston, ON K7K 3E6, Canada",
      "lat": 44.232362,
      "lng": -76.486556,
      "isIndependent": true,
      "website": "http://www.bseskate.com",
      "phone": "(613) 766-2259"
    },
    {
      "id": 55,
      "name": "Cade's Boards (Skateboards, Shoes)",
      "address": "422 Sawdust Rd., Spring, TX 77380",
      "lat": 30.12764,
      "lng": -95.448906,
      "isIndependent": true,
      "website": "http://cadesboards.com",
      "phone": "(281) 419-0900"
    },
    {
      "id": 262,
      "name": "Cal Skate Skateboards",
      "address": "210 NW 6th Ave., Portland, OR 97209",
      "lat": 45.52493,
      "lng": -122.67637,
      "isIndependent": true,
      "website": "http://www.calsk8.com",
      "phone": "(503) 248-0495"
    },
    {
      "id": 444,
      "name": "Calhoun Surf N Skate",
      "address": "250 Bunting Rd., St. Catharines, ON L2M 3Y1, Canada",
      "lat": 43.174961,
      "lng": -79.209426,
      "isIndependent": true,
      "website": "https://calhounsurfnskate.com",
      "phone": "(905) 688-6100"
    },
    {
      "id": 745,
      "name": "Cannon Skate Shop",
      "address": "357 A St., Idaho Falls, ID 83402",
      "lat": 43.492233,
      "lng": -112.04048,
      "isIndependent": true,
      "website": "https://www.cannonskateshop.com",
      "phone": "(208) 909-6360"
    },
    {
      "id": 354,
      "name": "Cardinal Skate Shop",
      "address": "733 Granby St., Norfolk, VA 23510",
      "lat": 36.855418,
      "lng": -76.288628,
      "isIndependent": true,
      "website": "http://www.cardinalskateshop.com",
      "phone": "(757) 306-0550"
    },
    {
      "id": 44,
      "name": "Carriers Skate Shop",
      "address": "1420 K Ave., Plano, TX 75074",
      "lat": 33.019347,
      "lng": -96.699012,
      "isIndependent": true,
      "website": "http://www.carriersskateshop.com",
      "phone": "(469) 367-0083"
    },
    {
      "id": 510,
      "name": "Cassette Skateshop",
      "address": "3935 St. Elmo Ave., Chattanooga, TN 37409",
      "lat": 35.009331,
      "lng": -85.328314,
      "isIndependent": true,
      "website": "http://www.cassetteskateshop.com",
      "phone": "(423) 401-8376"
    },
    {
      "id": 231,
      "name": "Catalyst Surf & Skate",
      "address": "12250 Strategy Blvd. #425, Orlando, FL 32817",
      "lat": 28.599914,
      "lng": -81.208777,
      "isIndependent": true,
      "website": "http://catalystshop.com",
      "phone": "(407) 380-7427"
    },
    {
      "id": 227,
      "name": "Catonsville Bicycles and Skateboards",
      "address": "825 Frederick Rd. Rear, Catonsville, MD 21228",
      "lat": 39.270851,
      "lng": -76.734759,
      "isIndependent": true,
      "website": "http://catonsvillebicycles.com",
      "phone": "(667) 802-4622"
    },
    {
      "id": 345,
      "name": "Cecil's Skate Shop",
      "address": "1200 Porter Rd. #3, Nashville, TN 37206",
      "lat": 36.189089,
      "lng": -86.729311,
      "isIndependent": true,
      "website": "http://www.cecilsskateshop.com"
    },
    {
      "id": 825,
      "name": "Central Board Shop",
      "address": "426 N 3rd Street, Wausau, WI 54403",
      "lat": 44.960461,
      "lng": -89.628059,
      "isIndependent": true,
      "website": "http://www.central-boardshop.com",
      "phone": "(715) 848-0400"
    },
    {
      "id": 796,
      "name": "Central Coast Surfboards",
      "address": "855 Marsh St., San Luis Obispo, CA 93401",
      "lat": 35.279109,
      "lng": -120.661709,
      "isIndependent": true,
      "website": "http://www.ccsurf.com",
      "phone": "(805) 541-1129"
    },
    {
      "id": 237,
      "name": "Central Florida Skate",
      "address": "4880A Distribution Ct. Unit 1, Orlando, FL 32822",
      "lat": 28.477977,
      "lng": -81.301055,
      "isIndependent": true,
      "website": "https://centralfloridaskate.com",
      "phone": "(407) 694-1718"
    },
    {
      "id": 226,
      "name": "Central skate supply",
      "address": "13 Central Ave., Ridgely, MD 21660",
      "lat": 38.946787,
      "lng": -75.884096,
      "isIndependent": true,
      "website": "http://www.centralskatesupply.com",
      "phone": "(443) 786-3928"
    },
    {
      "id": 488,
      "name": "Central Skateshop",
      "address": "2905 N 59th St., Omaha, NE 68104",
      "lat": 41.285271,
      "lng": -96.003433,
      "isIndependent": true,
      "website": "https://www.instagram.com/centralskateshopomaha/"
    },
    {
      "id": 304,
      "name": "Central Studio Skate Shop and Art Studio",
      "address": "1389 Central Ave., Middletown, OH 45044",
      "lat": 39.515014,
      "lng": -84.39899,
      "isIndependent": true,
      "website": "https://www.centralstudiollc.com",
      "phone": "(513) 709-8083"
    },
    {
      "id": 794,
      "name": "Ceremony Skate Shop",
      "address": "1235 Monterey St., San Luis Obispo, CA 93401",
      "lat": 35.283693,
      "lng": -120.657808,
      "isIndependent": true,
      "website": "http://ceremonyskateshop.com",
      "phone": "(805) 439-0366"
    },
    {
      "id": 410,
      "name": "Charlottesville Skateshop",
      "address": "1713 Allied Ln. suite a, Charlottesville, VA 22903",
      "lat": 38.041357,
      "lng": -78.477856,
      "isIndependent": true,
      "website": "http://www.cvilleskates.com",
      "phone": "(434) 260-1739"
    },
    {
      "id": 404,
      "name": "Cheapskates",
      "address": "1576 Getwell Rd., Memphis, TN 38111",
      "lat": 35.088699,
      "lng": -89.930636,
      "isIndependent": true,
      "website": "https://www.facebook.com/pages/Cheapskates/122308414460980"
    },
    {
      "id": 462,
      "name": "Cheecharrone Sk8 Shop",
      "address": "125 E Fry Blvd. ste 7a, Sierra Vista, AZ 85635",
      "lat": 31.554959,
      "lng": -110.29844,
      "isIndependent": true,
      "phone": "(520) 255-9079"
    },
    {
      "id": 589,
      "name": "Cherry Bomb Skates",
      "address": "733 W 13th St. N, Wichita, KS 67203",
      "lat": 37.707758,
      "lng": -97.347999,
      "isIndependent": true,
      "website": "https://www.facebook.com/CherryBombSkates",
      "phone": "(316) 833-9563"
    },
    {
      "id": 23,
      "name": "Cherry Smoke & Skate Shop",
      "address": "418 Cherry Ave., Long Beach, CA 90802",
      "lat": 33.772133,
      "lng": -118.167556,
      "isIndependent": true,
      "website": "https://www.instagram.com/cherrysmk_skateshop/",
      "phone": "(562) 681-1085"
    },
    {
      "id": 411,
      "name": "Cinema Skateshop",
      "address": "508 E Main St., Charlottesville, VA 22902",
      "lat": 38.029621,
      "lng": -78.478271,
      "isIndependent": true,
      "website": "http://cinemaskateshop.com",
      "phone": "(434) 367-8992"
    },
    {
      "id": 338,
      "name": "Circle-A Skateboards",
      "address": "380 S 1st St., San Jose, CA 95113",
      "lat": 37.330462,
      "lng": -121.88613,
      "isIndependent": true,
      "phone": "(408) 995-0677"
    },
    {
      "id": 33,
      "name": "Citizen Skate Shop",
      "address": "920 W Wilson Ave., Chicago, IL 60640",
      "lat": 41.965566,
      "lng": -87.653327,
      "isIndependent": true,
      "website": "http://citizenskateshop.com",
      "phone": "(773) 420-9466"
    },
    {
      "id": 362,
      "name": "Civil Skateboard & Snowboard Shop",
      "address": "86 Main St., East Greenwich, RI 02818",
      "lat": 41.662837,
      "lng": -71.449929,
      "isIndependent": true,
      "website": "http://www.wearecivil.com",
      "phone": "(401) 886-5116"
    },
    {
      "id": 364,
      "name": "Civil Skateboard & Surf Shop",
      "address": "130 Granite St., Westerly, RI 02891",
      "lat": 41.370407,
      "lng": -71.819661,
      "isIndependent": true,
      "website": "http://www.wearecivil.com",
      "phone": "(401) 596-0028"
    },
    {
      "id": 107,
      "name": "Civil Skateboard Shop",
      "address": "231 Westminster St., Providence, RI 02903",
      "lat": 41.823118,
      "lng": -71.412746,
      "isIndependent": true,
      "website": "http://www.wearecivil.com",
      "phone": "(401) 383-1622"
    },
    {
      "id": 682,
      "name": "Classic Skate Shop",
      "address": "273 E Plumb Ln. #105, Reno, NV 89502",
      "lat": 39.50601,
      "lng": -119.80245,
      "isIndependent": true,
      "phone": "(775) 203-4025"
    },
    {
      "id": 626,
      "name": "Cleveland Skate Place",
      "address": "2100 Candies Ln. NW, Cleveland, TN 37312",
      "lat": 35.195274,
      "lng": -84.891717,
      "isIndependent": true,
      "website": "https://www.clevelandskateplace.com",
      "phone": "(423) 472-1010"
    },
    {
      "id": 347,
      "name": "Clockwork Custom Skates, LLC",
      "address": "331 Union St. Suite A6, Clarksville, TN 37040",
      "lat": 36.52468,
      "lng": -87.354356,
      "isIndependent": true,
      "phone": "(931) 494-6390"
    },
    {
      "id": 356,
      "name": "Coastal Edge 21st Street",
      "address": "316 21st St., Virginia Beach, VA 23451",
      "lat": 36.84858,
      "lng": -75.977845,
      "isIndependent": true,
      "website": "https://www.coastaledge.com",
      "phone": "(757) 422-4640"
    },
    {
      "id": 508,
      "name": "Comfort Skateshop",
      "address": "512 Tremont St. D, Chattanooga, TN 37405",
      "lat": 35.066724,
      "lng": -85.29851,
      "isIndependent": true,
      "website": "http://comfortskateshop.com",
      "phone": "(423) 305-0492"
    },
    {
      "id": 259,
      "name": "Commonwealth Skateboarding",
      "address": "1425 SE 20th Ave., Portland, OR 97214",
      "lat": 45.512475,
      "lng": -122.645697,
      "isIndependent": true,
      "website": "https://www.cwskate.com",
      "phone": "(503) 208-2080"
    },
    {
      "id": 767,
      "name": "Community Board Shop",
      "address": "13439 71a Ave., Surrey, BC V3W 2L2, Canada",
      "lat": 49.132997,
      "lng": -122.849976,
      "isIndependent": true,
      "phone": "(604) 598-1159"
    },
    {
      "id": 451,
      "name": "Community Skateshop",
      "address": "139 State St., Auburn, NY 13021",
      "lat": 42.936157,
      "lng": -76.5712,
      "isIndependent": true,
      "website": "https://communityskate.shop",
      "phone": "(315) 209-7711"
    },
    {
      "id": 806,
      "name": "Como Skate Supply",
      "address": "1206 Business Loop 70 W Suite G, Columbia, MO 65202",
      "lat": 38.966395,
      "lng": -92.355491,
      "isIndependent": true,
      "phone": "(573) 442-9262"
    },
    {
      "id": 512,
      "name": "Companion Skatepark",
      "address": "255 Mill St. suite b, Taylors, SC 29687",
      "lat": 34.920246,
      "lng": -82.285556,
      "isIndependent": true,
      "website": "http://www.companionskateparkfoundation.org",
      "phone": "(864) 415-9727"
    },
    {
      "id": 530,
      "name": "Compas Skateshop",
      "address": "140 W Picacho Ave. Suite B, Las Cruces, NM 88005",
      "lat": 32.31679,
      "lng": -106.781218,
      "isIndependent": true,
      "phone": "(575) 332-1689"
    },
    {
      "id": 582,
      "name": "Compound Boardshop",
      "address": "3604 S Osprey Ave., Sarasota, FL 34239",
      "lat": 27.301312,
      "lng": -82.533959,
      "isIndependent": true,
      "website": "https://compoundboardshop.com",
      "phone": "(941) 552-9805"
    },
    {
      "id": 111,
      "name": "Cooke's Skate Supply",
      "address": "446 Main St., Wilmington, MA 01887",
      "lat": 42.546156,
      "lng": -71.173084,
      "isIndependent": true,
      "website": "http://www.cookesskatesupply.com",
      "phone": "(978) 657-7586"
    },
    {
      "id": 476,
      "name": "Cool Breeze Skate Shop",
      "address": "983 Little East Neck Rd., West Babylon, NY 11704",
      "lat": 40.722732,
      "lng": -73.357717,
      "isIndependent": true,
      "website": "https://www.coolbreezeli.com",
      "phone": "(631) 422-2103"
    },
    {
      "id": 388,
      "name": "Core Board Shop",
      "address": "10467 N May Ave., Oklahoma City, OK 73120",
      "lat": 35.575901,
      "lng": -97.567923,
      "isIndependent": true,
      "phone": "(405) 286-5100"
    },
    {
      "id": 464,
      "name": "Core Board Shop",
      "address": "4038 E 11th St., Tulsa, OK 74112",
      "lat": 36.147575,
      "lng": -95.931638,
      "isIndependent": true,
      "phone": "(918) 779-6090"
    },
    {
      "id": 165,
      "name": "Corky's Boardshop",
      "address": "26441 Gratiot Ave., Roseville, MI 48066",
      "lat": 42.490552,
      "lng": -82.941592,
      "isIndependent": true,
      "website": "http://www.corkysboardshop.com",
      "phone": "(586) 775-8270"
    },
    {
      "id": 110,
      "name": "Corner Store Skate and Screen",
      "address": "255 Lafayette Rd., Seabrook, NH 03874",
      "lat": 42.881306,
      "lng": -70.868062,
      "isIndependent": true,
      "website": "http://www.cornerstoreskateboards.com"
    },
    {
      "id": 41,
      "name": "Cortez Skate Shop",
      "address": "2633 Ferris St., Dallas, TX 75226",
      "lat": 32.775643,
      "lng": -96.777728,
      "isIndependent": true,
      "website": "https://cortezskateshop.com",
      "phone": "(214) 377-8002"
    },
    {
      "id": 426,
      "name": "Cottonwood Board Shop and Cyclery",
      "address": "2594 Bengal Blvd., Salt Lake City, UT 84121",
      "lat": 40.610067,
      "lng": -111.818047,
      "isIndependent": true,
      "website": "http://www.cottonwoodboardshop.com",
      "phone": "(801) 942-1015"
    },
    {
      "id": 114,
      "name": "Cowtown Skateboards",
      "address": "5024 N Central Ave., Phoenix, AZ 85012",
      "lat": 33.509824,
      "lng": -112.074157,
      "isIndependent": true,
      "website": "http://www.cowtownskateboards.com",
      "phone": "(602) 212-9687"
    },
    {
      "id": 117,
      "name": "Cowtown Skateboards",
      "address": "215 W University Dr., Tempe, AZ 85281",
      "lat": 33.421574,
      "lng": -111.942595,
      "isIndependent": true,
      "website": "http://www.cowtownskateboards.com",
      "phone": "(480) 379-3605"
    },
    {
      "id": 118,
      "name": "Cowtown Skateboards",
      "address": "5708 W Union Hills Dr., Glendale, AZ 85308",
      "lat": 33.655,
      "lng": -112.183333,
      "isIndependent": true,
      "website": "http://www.cowtownskateboards.com",
      "phone": "(623) 580-5124"
    },
    {
      "id": 121,
      "name": "Cowtown Skateboards",
      "address": "14175 W Indian School Rd. Suite D-2, Goodyear, AZ 85395",
      "lat": 33.484826,
      "lng": -112.365396,
      "isIndependent": true,
      "website": "http://www.cowtownskateboards.com",
      "phone": "(623) 536-2345"
    },
    {
      "id": 578,
      "name": "Crafty Cranks & Board Shop",
      "address": "1405 Ben Sawyer Blvd. #102, Mt Pleasant, SC 29464",
      "lat": 32.79291,
      "lng": -79.855496,
      "isIndependent": true,
      "website": "http://craftycranksandboardshop.com",
      "phone": "(843) 822-3202"
    },
    {
      "id": 327,
      "name": "Crazy Skates USA & Factory Outlet Store",
      "address": "2801 Fortune Cir E Suite C, Indianapolis, IN 46241",
      "lat": 39.725143,
      "lng": -86.254331,
      "isIndependent": true,
      "website": "https://www.crazyskates.com",
      "phone": "(317) 222-6105"
    },
    {
      "id": 810,
      "name": "Crib to Crib Skateboarding Co.",
      "address": "402 1/2 N Main St., Bloomington, IL 61701",
      "lat": 40.481357,
      "lng": -88.993945,
      "isIndependent": true,
      "website": "https://www.cribtocrib.com",
      "phone": "(918) 576-3165"
    },
    {
      "id": 528,
      "name": "Crooks Skate Shop",
      "address": "5640 Montana Ave. suite j, El Paso, TX 79925",
      "lat": 31.782671,
      "lng": -106.420753,
      "isIndependent": true,
      "website": "http://www.crooksofficial.com",
      "phone": "(915) 775-0493"
    },
    {
      "id": 531,
      "name": "Crooks Skate Shop east",
      "address": "1791 N Zaragoza Rd. ste E, El Paso, TX 79936",
      "lat": 31.754971,
      "lng": -106.27592,
      "isIndependent": true,
      "website": "http://crooksofficial.com",
      "phone": "(915) 856-0493"
    },
    {
      "id": 139,
      "name": "Crooks Skateboard Shop",
      "address": "3870 Lemon St., Riverside, CA 92501",
      "lat": 33.980263,
      "lng": -117.372308,
      "isIndependent": true,
      "phone": "(951) 840-0034"
    },
    {
      "id": 694,
      "name": "Culture Skateshop",
      "address": "1035 Casitas Pass Rd., Carpinteria, CA 93013",
      "lat": 34.396506,
      "lng": -119.513607,
      "isIndependent": true,
      "website": "https://www.carpskatepark.org/shop-1",
      "phone": "(805) 399-4758"
    },
    {
      "id": 331,
      "name": "D.L. Decks Skateboard Shop",
      "address": "5569 Ridge Rd., Parma, OH 44129",
      "lat": 41.410083,
      "lng": -81.73422,
      "isIndependent": true,
      "website": "https://dldecks.com",
      "phone": "(216) 372-5223"
    },
    {
      "id": 85,
      "name": "D&Q Skate, Snow, Surf",
      "address": "1409 NJ-70 Unit 200, Cherry Hill Township, NJ 08034",
      "lat": 39.910245,
      "lng": -74.994301,
      "isIndependent": true,
      "website": "http://dandq.com",
      "phone": "(856) 520-8570"
    },
    {
      "id": 755,
      "name": "DALONE SKATEBOARDS",
      "address": "103 W Historic Hwy 66, Gallup, NM 87301",
      "lat": 35.528151,
      "lng": -108.741708,
      "isIndependent": true,
      "website": "http://www.daloneskateboards.com",
      "phone": "(505) 297-3250"
    },
    {
      "id": 509,
      "name": "Dalton Skate Shop",
      "address": "202 Fort Hill Dr., Dalton, GA 30721",
      "lat": 34.772164,
      "lng": -84.965044,
      "isIndependent": true,
      "website": "http://daltonskateshop.com",
      "phone": "(706) 264-2890"
    },
    {
      "id": 820,
      "name": "Damage Boardshop",
      "address": "1904 W Superior St., Duluth, MN 55806",
      "lat": 46.768604,
      "lng": -92.121745,
      "isIndependent": true,
      "website": "http://www.damageboardshop.com",
      "phone": "(218) 724-4027"
    },
    {
      "id": 786,
      "name": "Darkside Smoke Shop Skate Shop",
      "address": "975 Hilltop Dr., Redding, CA 96003",
      "lat": 40.593674,
      "lng": -122.357871,
      "isIndependent": true,
      "website": "https://www.reddingpipes.com",
      "phone": "(530) 246-1773"
    },
    {
      "id": 398,
      "name": "Daville Skate Shop",
      "address": "502 N McPherson Church Rd., Fayetteville, NC 28303",
      "lat": 35.073816,
      "lng": -78.952569,
      "isIndependent": true,
      "website": "http://www.davilleskateshop.com",
      "phone": "(910) 491-3502"
    },
    {
      "id": 611,
      "name": "Daytona Board Store Surf Shop",
      "address": "2044 S Atlantic Ave., Daytona Beach Shores, FL 32118",
      "lat": 29.200182,
      "lng": -80.995374,
      "isIndependent": true,
      "website": "http://daytonaboard.store",
      "phone": "(386) 256-4951"
    },
    {
      "id": 744,
      "name": "DECKADENCE BOARD SHOPPE",
      "address": "326 W Center St., Pocatello, ID 83204",
      "lat": 42.861894,
      "lng": -112.451191,
      "isIndependent": true,
      "website": "http://www.deckadenceskateboards.com",
      "phone": "(208) 220-6750"
    },
    {
      "id": 348,
      "name": "Decked Out Skate & Apparel",
      "address": "713 S Willow St., Springfield, TN 37172",
      "lat": 36.507007,
      "lng": -86.88442,
      "isIndependent": true,
      "website": "http://deckedoutskate.com",
      "phone": "(629) 395-8366"
    },
    {
      "id": 274,
      "name": "Deep Skateboard Shop",
      "address": "8161 Belvedere Ave. A, Sacramento, CA 95826",
      "lat": 38.538672,
      "lng": -121.406991,
      "isIndependent": true,
      "website": "https://deepsk8.com",
      "phone": "(916) 476-6916"
    },
    {
      "id": 142,
      "name": "Defy Boardshop",
      "address": "451 Magnolia Ave., Corona, CA 92879",
      "lat": 33.854598,
      "lng": -117.563402,
      "isIndependent": true,
      "website": "http://defyboardshop.com",
      "phone": "(951) 371-2707"
    },
    {
      "id": 251,
      "name": "DELI SKATE SUPPLY",
      "address": "8503 Broadway # 113, San Antonio, TX 78217",
      "lat": 29.518263,
      "lng": -98.464821,
      "isIndependent": true,
      "website": "http://deliskatesupply.com",
      "phone": "(210) 233-6735"
    },
    {
      "id": 393,
      "name": "Delicious Skateboard Shop",
      "address": "7909 Falls of Neuse Rd. Unit 101, Raleigh, NC 27615",
      "lat": 35.893196,
      "lng": -78.62636,
      "isIndependent": true,
      "website": "http://deliciousskateshop.com",
      "phone": "(984) 200-4309"
    },
    {
      "id": 122,
      "name": "Deluxe Skateshop",
      "address": "2330 Mission St., San Francisco, CA 94110",
      "lat": 37.759701,
      "lng": -122.419355,
      "isIndependent": true,
      "website": "http://www.dlxskateshop.com",
      "phone": "(415) 626-5588"
    },
    {
      "id": 301,
      "name": "Demented Skate Shop",
      "address": "5617 Liberty Fairfield Rd. #1, Hamilton, OH 45011",
      "lat": 39.414026,
      "lng": -84.476207,
      "isIndependent": true,
      "website": "http://www.dementedskateshop.com",
      "phone": "(513) 892-2124"
    },
    {
      "id": 70,
      "name": "Department of Skate",
      "address": "3607 20th St. NE, Washington, DC 20018",
      "lat": 38.934393,
      "lng": -76.975895,
      "isIndependent": true,
      "website": "http://deptofskate.com",
      "phone": "(202) 642-4758"
    },
    {
      "id": 242,
      "name": "Derby City Skates",
      "address": "1114 Clement Ave. Suite 100, Charlotte, NC 28205",
      "lat": 35.221284,
      "lng": -80.814769,
      "isIndependent": true,
      "website": "http://derbycityskates.com",
      "phone": "(980) 310-3030"
    },
    {
      "id": 552,
      "name": "Derby City Skates",
      "address": "4003 Country Club Rd., Winston-Salem, NC 27104",
      "lat": 36.090235,
      "lng": -80.318921,
      "isIndependent": true,
      "website": "http://www.derbycityskates.com",
      "phone": "(336) 608-4767"
    },
    {
      "id": 155,
      "name": "Detroit City Skateboards",
      "address": "318 W Nine Mile Rd., Ferndale, MI 48220",
      "lat": 42.460707,
      "lng": -83.138472,
      "isIndependent": true,
      "website": "http://detroitcityskateboards.com",
      "phone": "(248) 965-3280"
    },
    {
      "id": 702,
      "name": "Detroit Custom Skate Shop",
      "address": "888 Denison Ct., Bloomfield Township, MI 48302",
      "lat": 42.60811,
      "lng": -83.291328,
      "isIndependent": true,
      "website": "https://www.detcustomskateshop.com",
      "phone": "(248) 335-8790"
    },
    {
      "id": 45,
      "name": "Dillinger Boards",
      "address": "836 Barkridge Trail, Burleson, TX 76028",
      "lat": 32.536429,
      "lng": -97.34468,
      "isIndependent": true,
      "phone": "(817) 822-0233"
    },
    {
      "id": 869,
      "name": "Dime Skateshop",
      "address": "3632 Boul. Saint-Laurent, Montral, QC H2X 2V4, Canada",
      "lat": 45.514101,
      "lng": -73.573281,
      "isIndependent": true,
      "website": "http://dimemtl.com",
      "phone": "(514) 504-9909"
    },
    {
      "id": 601,
      "name": "Directive Boardshop",
      "address": "65 Main St., Logan, UT 84321",
      "lat": 41.730331,
      "lng": -111.835287,
      "isIndependent": true,
      "website": "http://www.directiveboardshop.com",
      "phone": "(435) 752-0155"
    },
    {
      "id": 284,
      "name": "DirtyRamen Skate Shop",
      "address": "DirtyRamen Skate Shop, 222 N Main St., Butler, PA 16001",
      "lat": 40.862949,
      "lng": -79.895502,
      "isIndependent": true,
      "phone": "(724) 355-2473"
    },
    {
      "id": 382,
      "name": "Disrupt Skateshop",
      "address": "1486 3rd St. S, Jacksonville Beach, FL 32250",
      "lat": 30.274343,
      "lng": -81.389638,
      "isIndependent": true,
      "website": "https://disruptskateshop.com",
      "phone": "(904) 386-4446"
    },
    {
      "id": 16,
      "name": "District Skateboard Shop",
      "address": "12015 Venice Blvd., Los Angeles, CA 90066",
      "lat": 34.006247,
      "lng": -118.429661,
      "isIndependent": true,
      "phone": "(310) 391-9430"
    },
    {
      "id": 80,
      "name": "Dogwood Skate Shop",
      "address": "1700 Yardley Langhorne Rd., Yardley, PA 19067",
      "lat": 40.223031,
      "lng": -74.874614,
      "isIndependent": true,
      "website": "http://dogwoodskateshop.com",
      "phone": "(215) 752-3000"
    },
    {
      "id": 627,
      "name": "Dream Sk8's",
      "address": "181 Wheeler Rd., McMinnville, TN 37110",
      "lat": 35.596844,
      "lng": -85.819464,
      "isIndependent": true
    },
    {
      "id": 313,
      "name": "Dream Skates",
      "address": "641 W 68th Terrace, Kansas City, MO 64113",
      "lat": 39.005325,
      "lng": -94.598351,
      "isIndependent": true,
      "website": "http://www.dreamskateskc.com",
      "phone": "(408) 823-2602"
    },
    {
      "id": 450,
      "name": "Duck Skateboards",
      "address": "246 S Main St., Canandaigua, NY 14424",
      "lat": 42.884058,
      "lng": -77.279508,
      "isIndependent": true,
      "website": "https://duckskateshop.com",
      "phone": "(585) 905-0330"
    },
    {
      "id": 97,
      "name": "Duncan Creek Skate Shop",
      "address": "3700 Braselton Hwy, Dacula, GA 30019",
      "lat": 34.069937,
      "lng": -83.905043,
      "isIndependent": true,
      "phone": "(706) 299-7013"
    },
    {
      "id": 581,
      "name": "Eagle Skate Park",
      "address": "315 SW 2nd Ave., Cape Coral, FL 33991",
      "lat": 26.644505,
      "lng": -81.977117,
      "isIndependent": true,
      "website": "http://www.capecoral.net/department/parks_and_recreationhome/eagles_skate_park/index.php",
      "phone": "(239) 574-0490"
    },
    {
      "id": 108,
      "name": "Eastern Boarder",
      "address": "228 Daniel Webster Hwy, Nashua, NH 03060",
      "lat": 42.711848,
      "lng": -71.441211,
      "isIndependent": true,
      "website": "http://www.easternboarder.com",
      "phone": "(603) 888-0722"
    },
    {
      "id": 109,
      "name": "Eastern Boarder",
      "address": "7 Jackson St., Worcester, MA 01608",
      "lat": 42.256792,
      "lng": -71.808774,
      "isIndependent": true,
      "website": "http://www.easternboarder.com",
      "phone": "(508) 852-3668"
    },
    {
      "id": 430,
      "name": "Eastern Pulse Board Shop",
      "address": "177 Sherman Ave. Unit E, Hamden, CT 06518",
      "lat": 41.414013,
      "lng": -72.903719,
      "isIndependent": true,
      "website": "http://www.easternpulse.com",
      "phone": "(203) 691-9606"
    },
    {
      "id": 330,
      "name": "Eastern Revival Skateshop",
      "address": "216 Main St., Painesville, OH 44077",
      "lat": 41.726108,
      "lng": -81.240744,
      "isIndependent": true,
      "phone": "(440) 579-5793"
    },
    {
      "id": 260,
      "name": "Eastside Longboards",
      "address": "S.E. 65th ave. &, SE Foster Rd., Portland, OR 97206",
      "lat": 45.489253,
      "lng": -122.595991,
      "isIndependent": true,
      "website": "https://eastsidelongboards.com",
      "phone": "(503) 680-0457"
    },
    {
      "id": 781,
      "name": "Easy Outlaw Skate Shop",
      "address": "9109 United States, 616 NE 2nd St., Goldendale, WA 98620",
      "lat": 45.823532,
      "lng": -120.812857,
      "isIndependent": true,
      "phone": "(509) 261-9103"
    },
    {
      "id": 709,
      "name": "EDGE of the WORLD Snowboard Shop",
      "address": "394 Shawneehaw Ave. S #200, Banner Elk, NC 28604",
      "lat": 36.160596,
      "lng": -81.870816,
      "isIndependent": true,
      "phone": "(828) 898-9550"
    },
    {
      "id": 10,
      "name": "Edge Skate Shop & Home of Team Edge",
      "address": "581 Northfield Ave., West Orange, NJ 07052",
      "lat": 40.770197,
      "lng": -74.282329,
      "isIndependent": true,
      "website": "https://www.edgeskateshop.com",
      "phone": "(973) 731-7194"
    },
    {
      "id": 605,
      "name": "Eduskate Board Shop",
      "address": "208 12th Ave. SE Suite B, Cedar Rapids, IA 52401",
      "lat": 41.969813,
      "lng": -91.659291,
      "isIndependent": true,
      "website": "http://www.eduskatecr.com",
      "phone": "(319) 892-3476"
    },
    {
      "id": 822,
      "name": "El Camino Skateshop",
      "address": "310 Water St., Eau Claire, WI 54703",
      "lat": 44.80237,
      "lng": -91.506144,
      "isIndependent": true,
      "phone": "(715) 912-1169"
    },
    {
      "id": 595,
      "name": "Elements Boardshop",
      "address": "313 Broadway, Wisconsin Dells, WI 53965",
      "lat": 43.627896,
      "lng": -89.773079,
      "isIndependent": true,
      "website": "https://www.elementswi.com",
      "phone": "(608) 254-1104"
    },
    {
      "id": 502,
      "name": "Elijah Skateboards",
      "address": "2801 Oakley St., Bakersfield, CA 93311",
      "lat": 35.329858,
      "lng": -119.143106,
      "isIndependent": true,
      "website": "http://www.elijahskateboards.bigcartel.com",
      "phone": "(661) 316-2199"
    },
    {
      "id": 69,
      "name": "Embark Skateboard Shop",
      "address": "238-B N Market St., Frederick, MD 21701",
      "lat": 39.417471,
      "lng": -77.410405,
      "isIndependent": true,
      "website": "http://www.embarkskateshop.com",
      "phone": "(301) 693-2077"
    },
    {
      "id": 319,
      "name": "Embassy Board Shop",
      "address": "3347 N High St., Columbus, OH 43202",
      "lat": 40.03039,
      "lng": -83.015735,
      "isIndependent": true,
      "website": "http://www.embassyboardshop.com",
      "phone": "(614) 262-6223"
    },
    {
      "id": 271,
      "name": "Empire Skatepark",
      "address": "5439 NE Century Blvd., Hillsboro, OR 97124",
      "lat": 45.55992,
      "lng": -122.91358,
      "isIndependent": true,
      "website": "https://skatetheempire.com",
      "phone": "(971) 917-6421"
    },
    {
      "id": 148,
      "name": "Empire Skates",
      "address": "263 N 2nd Ave., Upland, CA 91786",
      "lat": 34.096808,
      "lng": -117.648733,
      "isIndependent": true,
      "website": "http://www.empireskateshop.com",
      "phone": "(909) 294-6396"
    },
    {
      "id": 754,
      "name": "Enchantment Skate Shop",
      "address": "310 E Historic Hwy 66, Gallup, NM 87301",
      "lat": 35.529132,
      "lng": -108.738499,
      "isIndependent": true,
      "website": "https://enchantment-skate-shop.square.site",
      "phone": "(505) 488-2768"
    },
    {
      "id": 317,
      "name": "ERIK'S - Bike Board Ski",
      "address": "11500 W 135th St., Overland Park, KS 66221",
      "lat": 38.884721,
      "lng": -94.720316,
      "isIndependent": true,
      "website": "https://www.eriksbikeshop.com/pages/locations/kansas-city-overland-park-ks?utm_source=google&utm_medium=organic&utm_campaign=GBP",
      "phone": "(913) 451-1515"
    },
    {
      "id": 378,
      "name": "ERIK'S - Bike Board Ski",
      "address": "598 West Northshore Drive, Glendale, WI 53217",
      "lat": 43.120556,
      "lng": -87.916252,
      "isIndependent": true,
      "website": "https://www.eriksbikeshop.com/pages/locations/bayshore-wi?utm_source=google&utm_medium=organic&utm_campaign=GBP",
      "phone": "(414) 831-1001"
    },
    {
      "id": 379,
      "name": "ERIK'S - Bike Board Ski",
      "address": "8401 W Layton Ave., Greenfield, WI 53228",
      "lat": 42.958929,
      "lng": -88.01878,
      "isIndependent": true,
      "website": "https://www.eriksbikeshop.com/pages/locations/greenfield-wi?utm_source=google&utm_medium=organic&utm_campaign=GBP",
      "phone": "(414) 448-1208"
    },
    {
      "id": 607,
      "name": "ERIK'S - Bike Board Ski",
      "address": "950 1st St., West Des Moines, IA 50265",
      "lat": 41.584059,
      "lng": -93.703855,
      "isIndependent": true,
      "website": "https://www.eriksbikeshop.com/pages/locations/west-des-moines-ia?utm_source=google&utm_medium=organic&utm_campaign=GBP",
      "phone": "(515) 277-2636"
    },
    {
      "id": 803,
      "name": "ERIK'S - Bike Board Ski",
      "address": "3315 S Spring Ave., Sioux Falls, SD 57105",
      "lat": 43.514203,
      "lng": -96.732925,
      "isIndependent": true,
      "website": "https://www.eriksbikeshop.com/pages/locations/sioux-falls-sd?utm_source=google&utm_medium=organic&utm_campaign=GBP",
      "phone": "(605) 334-2668"
    },
    {
      "id": 823,
      "name": "ERIK'S - Bike Board Ski",
      "address": "1220 16th St. SW, Rochester, MN 55902",
      "lat": 44.000414,
      "lng": -92.48138,
      "isIndependent": true,
      "website": "https://www.eriksbikeshop.com/pages/locations/rochester-mn?utm_source=google&utm_medium=organic&utm_campaign=GBP",
      "phone": "(507) 292-0024"
    },
    {
      "id": 309,
      "name": "Escapist Skateboarding",
      "address": "405 Southwest Blvd. #100, Kansas City, MO 64108",
      "lat": 39.087114,
      "lng": -94.589439,
      "isIndependent": true,
      "website": "http://www.escapistskateboarding.com",
      "phone": "(816) 842-2504"
    },
    {
      "id": 314,
      "name": "Escapist Skateboarding",
      "address": "880F NW Blue Pkwy, Lee's Summit, MO 64086",
      "lat": 38.93032,
      "lng": -94.402661,
      "isIndependent": true,
      "website": "http://www.escapistskateboarding.com",
      "phone": "(816) 554-2504"
    },
    {
      "id": 831,
      "name": "Euphoria Botanical LLC & Euphoria Skate Shop",
      "address": "222 E Main St., Kilgore, TX 75662",
      "lat": 32.385673,
      "lng": -94.87515,
      "isIndependent": true,
      "website": "https://euphoriabotanical.com",
      "phone": "(903) 983-0213"
    },
    {
      "id": 128,
      "name": "Everyday Skate shop",
      "address": "10 Geary St., San Francisco, CA 94108",
      "lat": 37.788053,
      "lng": -122.403765,
      "isIndependent": true,
      "website": "http://www.everydaysfc.com",
      "phone": "(415) 728-4620"
    },
    {
      "id": 862,
      "name": "Everyday Skate Wax Co.",
      "address": "99 St. Marie St., Manchester, NH 03102",
      "lat": 42.986479,
      "lng": -71.489647,
      "isIndependent": true,
      "website": "https://everydayskatewaxco.com"
    },
    {
      "id": 656,
      "name": "Ezy Rider skate co.",
      "address": "198 Dobbins St. DD, Vacaville, CA 95688",
      "lat": 38.357742,
      "lng": -121.989042,
      "isIndependent": true,
      "phone": "(916) 730-9238"
    },
    {
      "id": 115,
      "name": "Faces Skate Shop",
      "address": "655 W Warner Rd. #125, Tempe, AZ 85284",
      "lat": 33.333054,
      "lng": -111.948259,
      "isIndependent": true,
      "website": "http://www.facesskateshop.com",
      "phone": "(480) 590-0427"
    },
    {
      "id": 445,
      "name": "Faith Skate Supply",
      "address": "4412 4th Ave. S, Birmingham, AL 35222",
      "lat": 33.526937,
      "lng": -86.766449,
      "isIndependent": true,
      "website": "http://www.faithskate.com",
      "phone": "(205) 659-7225"
    },
    {
      "id": 625,
      "name": "Faith Skate Supply - Huntsville",
      "address": "7914 Memorial Pkwy SW, Huntsville, AL 35802",
      "lat": 34.661261,
      "lng": -86.571924,
      "isIndependent": true,
      "website": "https://www.faithskate.com",
      "phone": "(256) 490-2253"
    },
    {
      "id": 178,
      "name": "Familia Skateboard Shop",
      "address": "835 E Hennepin Ave., Minneapolis, MN 55414",
      "lat": 44.991972,
      "lng": -93.246076,
      "isIndependent": true,
      "website": "http://familiaskate.com",
      "phone": "(612) 379-3080"
    },
    {
      "id": 266,
      "name": "Faulkner Skate Shop",
      "address": "1678 Beavercreek Rd. unit i, Oregon City, OR 97045",
      "lat": 45.332746,
      "lng": -122.584426,
      "isIndependent": true,
      "website": "https://faulknerskate.com",
      "phone": "(503) 314-5500"
    },
    {
      "id": 867,
      "name": "Fentonelli's Bike Shop & Skate Apparel",
      "address": "138 Desmond St., Sayre, PA 18840",
      "lat": 41.981197,
      "lng": -76.515516,
      "isIndependent": true,
      "website": "http://www.fentonellis.com",
      "phone": "(570) 731-4228"
    },
    {
      "id": 385,
      "name": "fernandina beach skateboarding",
      "address": "11 S 8th St., Fernandina Beach, FL 32034",
      "lat": 30.67027,
      "lng": -81.459118,
      "isIndependent": true,
      "phone": "(904) 277-3227"
    },
    {
      "id": 732,
      "name": "Finch's Skate Shop",
      "address": "218 W Fort Macon Rd., Atlantic Beach, NC 28512",
      "lat": 34.701418,
      "lng": -76.741475,
      "isIndependent": true,
      "website": "https://www.finchsskateshop.com",
      "phone": "(252) 499-9053"
    },
    {
      "id": 31,
      "name": "First Gear Skateshop",
      "address": "3224 S Morgan St., Chicago, IL 60608",
      "lat": 41.83541,
      "lng": -87.651369,
      "isIndependent": true,
      "website": "http://firstgearskateshop.com",
      "phone": "(708) 637-3199"
    },
    {
      "id": 514,
      "name": "Five Points Skate / Snowboards",
      "address": "2787 E Main St., Ventura, CA 93003",
      "lat": 34.273017,
      "lng": -119.258424,
      "isIndependent": true,
      "phone": "(805) 652-1432"
    },
    {
      "id": 263,
      "name": "Five Stride Skate Shop",
      "address": "4515 NE Martin Luther King Jr Blvd., Portland, OR 97211",
      "lat": 45.555751,
      "lng": -122.661865,
      "isIndependent": true,
      "website": "http://fivestride.com",
      "phone": "(503) 265-8170"
    },
    {
      "id": 9,
      "name": "Five Stride Skate Shop BK",
      "address": "176 Bushwick Ave., Brooklyn, NY 11206",
      "lat": 40.709572,
      "lng": -73.940339,
      "isIndependent": true,
      "website": "https://www.fivestridebk.com",
      "phone": "(347) 529-6787"
    },
    {
      "id": 253,
      "name": "Five-Oh Skate Shop",
      "address": "107 E San Antonio Ave., Boerne, TX 78006",
      "lat": 29.794073,
      "lng": -98.731297,
      "isIndependent": true,
      "website": "https://fiveohskateshop.com"
    },
    {
      "id": 372,
      "name": "Fixion Skate Shop",
      "address": "344 E Main St. #3, Twin Lakes, WI 53181",
      "lat": 42.53222,
      "lng": -88.249406,
      "isIndependent": true,
      "website": "https://fixionskateboards.com",
      "phone": "(262) 448-1178"
    },
    {
      "id": 746,
      "name": "FLAGSTAFF RECORDS & SKATES",
      "address": "13 N San Francisco St. Suite 205, Flagstaff, AZ 86001",
      "lat": 35.197865,
      "lng": -111.648206,
      "isIndependent": true,
      "website": "https://flagstaffrecords.com",
      "phone": "(928) 821-6150"
    },
    {
      "id": 766,
      "name": "Flatspot Longboard Shop",
      "address": "112 E Pender St., Vancouver, BC V6A 2V2, Canada",
      "lat": 49.28033,
      "lng": -123.101878,
      "isIndependent": true,
      "website": "http://www.flatspotlongboards.com",
      "phone": "(604) 899-8937"
    },
    {
      "id": 359,
      "name": "Flies skate shop",
      "address": "803 Shirley Ave., Norfolk, VA 23517",
      "lat": 36.86779,
      "lng": -76.298436,
      "isIndependent": true,
      "phone": "(757) 577-3109"
    },
    {
      "id": 505,
      "name": "Flipside Boardshop",
      "address": "4920 Soco Rd., Maggie Valley, NC 28751",
      "lat": 35.5218,
      "lng": -83.110293,
      "isIndependent": true,
      "website": "https://flipsideboardshop.com",
      "phone": "(828) 926-3699"
    },
    {
      "id": 665,
      "name": "Flohana Surf Skate Skim",
      "address": "200 N Atlantic Ave., Cocoa Beach, FL 32931",
      "lat": 28.322139,
      "lng": -80.609101,
      "isIndependent": true,
      "website": "http://www.flohana.com",
      "phone": "(321) 419-7243"
    },
    {
      "id": 569,
      "name": "Flower Skate Shop",
      "address": "121 Walton St., Syracuse, NY 13202",
      "lat": 43.047823,
      "lng": -76.154386,
      "isIndependent": true,
      "website": "https://flowerskateshop.com",
      "phone": "(315) 907-9478"
    },
    {
      "id": 98,
      "name": "Fly Rollers \"The Skate Shop\"",
      "address": "2695 Sugarloaf Pkwy ste 1300, Lawrenceville, GA 30045",
      "lat": 33.917339,
      "lng": -83.998191,
      "isIndependent": true,
      "website": "http://www.flyrollers.com",
      "phone": "(678) 800-3794"
    },
    {
      "id": 591,
      "name": "Flying Low Skateshop",
      "address": "4509 Monona Dr. suite a, Monona, WI 53716",
      "lat": 43.071047,
      "lng": -89.326358,
      "isIndependent": true,
      "website": "http://flyinglowskateshop.com",
      "phone": "(608) 212-6811"
    },
    {
      "id": 603,
      "name": "Flying Panther Skate Shop",
      "address": "2442 Centre Ave. NW, Roanoke, VA 24017",
      "lat": 37.28326,
      "lng": -79.978661,
      "isIndependent": true,
      "website": "http://www.flyingpantherskate.com",
      "phone": "(540) 206-2819"
    },
    {
      "id": 594,
      "name": "Focus Boardshop",
      "address": "2358 E Springs Dr., Madison, WI 53704",
      "lat": 43.129586,
      "lng": -89.295056,
      "isIndependent": true,
      "website": "http://focusmadison.com",
      "phone": "(608) 242-8403"
    },
    {
      "id": 442,
      "name": "Food Court Skatepark",
      "address": "3701 McKinley Pkwy Unit 835, Buffalo, NY 14219",
      "lat": 42.78603,
      "lng": -78.80748,
      "isIndependent": true,
      "website": "https://www.foodcourtskatepark.com",
      "phone": "(716) 437-3663"
    },
    {
      "id": 579,
      "name": "FORCE Kiteboarding & Wakeboarding Lessons & Gear",
      "address": "1405 Ben Sawyer Blvd. Ste 100, Mt Pleasant, SC 29464",
      "lat": 32.793028,
      "lng": -79.855724,
      "isIndependent": true,
      "website": "http://forcekiteandwake.com",
      "phone": "(843) 329-3004"
    },
    {
      "id": 707,
      "name": "Foreverfly Skate and Apparel",
      "address": "442 Main St., Watsonville, CA 95076",
      "lat": 36.911193,
      "lng": -121.757702,
      "isIndependent": true,
      "website": "http://www.foreverflyskate.com",
      "phone": "(831) 228-9819"
    },
    {
      "id": 660,
      "name": "Fort Pierce Surf & Skate",
      "address": "2156 N US Hwy 1, Fort Pierce, FL 34946",
      "lat": 27.470889,
      "lng": -80.333533,
      "isIndependent": true,
      "phone": "(772) 444-5282"
    },
    {
      "id": 116,
      "name": "Freedom Board Shop",
      "address": "1316 S Gilbert Rd. D-6, Mesa, AZ 85204",
      "lat": 33.390855,
      "lng": -111.790079,
      "isIndependent": true,
      "website": "https://www.freedomboardshop.com",
      "phone": "(480) 892-1707"
    },
    {
      "id": 377,
      "name": "Freedom Skate Shop",
      "address": "512 State St., Madison, WI 53703",
      "lat": 43.074962,
      "lng": -89.393965,
      "isIndependent": true,
      "website": "http://freedomskateshopmadison.com",
      "phone": "(608) 622-3534"
    },
    {
      "id": 384,
      "name": "FreeRide Surf & Skate Shop",
      "address": "1516 NW 13th St., Gainesville, FL 32601",
      "lat": 29.666281,
      "lng": -82.339497,
      "isIndependent": true,
      "website": "http://www.freeridesurfshop.com",
      "phone": "(352) 373-7873"
    },
    {
      "id": 808,
      "name": "Friend. skateboards",
      "address": "6736 N Post Oak Rd., Peoria, IL 61615",
      "lat": 40.770583,
      "lng": -89.668131,
      "isIndependent": true,
      "phone": "(309) 415-1936"
    },
    {
      "id": 321,
      "name": "Frogwood Boardshop",
      "address": "607 S 30th St., Heath, OH 43056",
      "lat": 40.03552,
      "lng": -82.443146,
      "isIndependent": true,
      "website": "http://frogwoodboardshop.com",
      "phone": "(740) 755-0047"
    },
    {
      "id": 11,
      "name": "FTC Skateboarding",
      "address": "216 Avenue A, New York, NY 10009",
      "lat": 40.729921,
      "lng": -73.980461,
      "isIndependent": true,
      "website": "http://ftcsf.com",
      "phone": "(646) 741-7354"
    },
    {
      "id": 126,
      "name": "FTC Skateboarding",
      "address": "1632 Haight St., San Francisco, CA 94117",
      "lat": 37.76988,
      "lng": -122.449226,
      "isIndependent": true,
      "website": "https://ftcsf.com",
      "phone": "(415) 626-0663"
    },
    {
      "id": 735,
      "name": "Full Tilt Skate & Snow",
      "address": "10 Snowshoe Dr., Snowshoe, WV 26209",
      "lat": 38.411628,
      "lng": -79.996322,
      "isIndependent": true,
      "website": "https://www.snowshoemtn.com/things-to-do/shopping/full-tilt",
      "phone": "(304) 572-5742"
    },
    {
      "id": 232,
      "name": "Funk Board Shop",
      "address": "840 Deltona Blvd. E1, Deltona, FL 32725",
      "lat": 28.885415,
      "lng": -81.277398,
      "isIndependent": true,
      "website": "http://funkskateboarding.com",
      "phone": "(386) 414-3464"
    },
    {
      "id": 788,
      "name": "FunLand / Cal Skate Chico",
      "address": "2465 Carmichael Dr., Chico, CA 95928",
      "lat": 39.717134,
      "lng": -121.803977,
      "isIndependent": true,
      "website": "http://www.funlandchico.com",
      "phone": "(530) 343-1601"
    },
    {
      "id": 244,
      "name": "Funroe Board Co",
      "address": "116 E Franklin St., Monroe, NC 28112",
      "lat": 34.982465,
      "lng": -80.548839,
      "isIndependent": true,
      "phone": "(704) 345-9984"
    },
    {
      "id": 615,
      "name": "Funtastik Skate and Snowboard Shop",
      "address": "18 W Main St., Mechanicsburg, PA 17055",
      "lat": 40.213307,
      "lng": -77.008692,
      "isIndependent": true,
      "website": "https://www.funtastikonline.com",
      "phone": "(717) 697-6692"
    },
    {
      "id": 568,
      "name": "G&P Indoor Skatepark and Skate Shop",
      "address": "529 Arrawanna St., Colorado Springs, CO 80909",
      "lat": 38.840832,
      "lng": -104.771683,
      "isIndependent": true,
      "website": "http://www.skateprocess.com",
      "phone": "(719) 203-6035"
    },
    {
      "id": 229,
      "name": "Galactic G Skateshop",
      "address": "2020 N Orange Ave., Orlando, FL 32804",
      "lat": 28.57031,
      "lng": -81.37293,
      "isIndependent": true,
      "website": "https://www.galacticg.com",
      "phone": "(407) 895-0410"
    },
    {
      "id": 59,
      "name": "Game & Skate",
      "address": "515 S Gordon St., Alvin, TX 77511",
      "lat": 29.419842,
      "lng": -95.243765,
      "isIndependent": true,
      "website": "https://linktr.ee/Gameandskate?",
      "phone": "(346) 253-7037"
    },
    {
      "id": 56,
      "name": "Geometric Skate Shop",
      "address": "320 W Rankin Rd. B, Houston, TX 77090",
      "lat": 29.966346,
      "lng": -95.423948,
      "isIndependent": true,
      "website": "http://geometricskateshop.com",
      "phone": "(281) 836-6113"
    },
    {
      "id": 51,
      "name": "Geometric Skate Shop 290",
      "address": "11532 Northwest Fwy, Houston, TX 77092",
      "lat": 29.823671,
      "lng": -95.472027,
      "isIndependent": true,
      "website": "http://geometricskateshop.com",
      "phone": "(346) 335-3141"
    },
    {
      "id": 40,
      "name": "Geometric Skate Shop Dallas",
      "address": "2700 N O'Connor Rd. Suite 120, Irving, TX 75062",
      "lat": 32.842695,
      "lng": -96.950355,
      "isIndependent": true,
      "website": "http://www.geometricskateshop.com",
      "phone": "(972) 600-9044"
    },
    {
      "id": 632,
      "name": "Get Real Board Shop",
      "address": "808 S Walton Blvd. Suite 12, Bentonville, AR 72712",
      "lat": 36.363707,
      "lng": -94.220182,
      "isIndependent": true,
      "website": "https://getrealboardshop.com",
      "phone": "(479) 553-7023"
    },
    {
      "id": 697,
      "name": "Get Wet Surf Shop & Skate Shop",
      "address": "101 Blue Heron Blvd., Riviera Beach, FL 33404",
      "lat": 26.782994,
      "lng": -80.05347,
      "isIndependent": true,
      "website": "http://getwetsurfandskate.com",
      "phone": "(561) 253-8754"
    },
    {
      "id": 171,
      "name": "Get Your Bearings Skate Shop",
      "address": "1533 NE 145th St., Seattle, WA 98155",
      "lat": 47.732354,
      "lng": -122.310976,
      "isIndependent": true,
      "website": "http://www.getyourbearingsskate.com",
      "phone": "(206) 257-5484"
    },
    {
      "id": 422,
      "name": "Ghost Boards",
      "address": "844 S 800 W Ste 209, Pleasant Grove, UT 84062",
      "lat": 40.353315,
      "lng": -111.753508,
      "isIndependent": true,
      "website": "http://www.ghostboards.com",
      "phone": "(801) 893-8016"
    },
    {
      "id": 855,
      "name": "Gnarly's Skate Shop",
      "address": "3500 Franklin Ave., Waco, TX 76710",
      "lat": 31.530702,
      "lng": -97.158267,
      "isIndependent": true,
      "phone": "(254) 752-7588"
    },
    {
      "id": 220,
      "name": "Go Figure Skates",
      "address": "7507 Big Bend Blvd., Webster Groves, MO 63119",
      "lat": 38.600209,
      "lng": -90.327737,
      "isIndependent": true,
      "website": "http://www.gofigureskates.com",
      "phone": "(314) 961-2758"
    },
    {
      "id": 57,
      "name": "Go Skate",
      "address": "99 Sabine St., Houston, TX 77007",
      "lat": 29.762063,
      "lng": -95.376903,
      "isIndependent": true,
      "website": "http://www.goskate.com"
    },
    {
      "id": 421,
      "name": "GoldCoast Skateboards",
      "address": "150 W Commonwealth Ave. Suite 103, South Salt Lake, UT 84115",
      "lat": 40.724868,
      "lng": -111.895192,
      "isIndependent": true,
      "website": "http://www.skategoldcoast.com",
      "phone": "(801) 474-6668"
    },
    {
      "id": 43,
      "name": "Good Foot Skates",
      "address": "212 S Tyler St., Dallas, TX 75208",
      "lat": 32.743694,
      "lng": -96.837486,
      "isIndependent": true,
      "website": "http://www.goodfootskates.com",
      "phone": "(469) 317-7388"
    },
    {
      "id": 773,
      "name": "Goodnews Skateshop",
      "address": "609 Johnson St., Victoria, BC V8W 1Y9, Canada",
      "lat": 48.427289,
      "lng": -123.366836,
      "isIndependent": true,
      "website": "http://goodnewsskateshop.com",
      "phone": "(250) 590-5777"
    },
    {
      "id": 332,
      "name": "Gordon's Skate Shop",
      "address": "15500 Roxboro Dr., Middleburg Heights, OH 44130",
      "lat": 41.386247,
      "lng": -81.8075,
      "isIndependent": true,
      "phone": "(440) 975-6224"
    },
    {
      "id": 456,
      "name": "GR Skate and Event Center - Byron Center",
      "address": "3651 84th St. SW, Byron Center, MI 49315",
      "lat": 42.812626,
      "lng": -85.753838,
      "isIndependent": true,
      "website": "https://grskateandevents.com",
      "phone": "(616) 878-7100"
    },
    {
      "id": 300,
      "name": "Grateful Skate Shop",
      "address": "8063 Production Dr., Florence, KY 41042",
      "lat": 38.974003,
      "lng": -84.603385,
      "isIndependent": true,
      "website": "http://gratefulskateshop.com",
      "phone": "(859) 638-8006"
    },
    {
      "id": 87,
      "name": "Greater Miami Skateshop",
      "address": "13321 SW 42nd St., Miami, FL 33175",
      "lat": 25.729828,
      "lng": -80.410284,
      "isIndependent": true,
      "website": "http://greatermiamiskateshop.com",
      "phone": "(786) 499-5225"
    },
    {
      "id": 816,
      "name": "Green Bay Action Sports Organization (GBASO)",
      "address": "2351 Holmgren Wy Suite 102, Ashwaubenon, WI 54304",
      "lat": 44.485797,
      "lng": -88.058628,
      "isIndependent": true,
      "website": "https://gbaso.org",
      "phone": "(920) 371-6852"
    },
    {
      "id": 629,
      "name": "Greenbee Longboard Skateboards",
      "address": "2872 Rohrsburg Rd., Benton, PA 17814",
      "lat": 41.177464,
      "lng": -76.393292,
      "isIndependent": true,
      "phone": "(570) 317-1266"
    },
    {
      "id": 736,
      "name": "Greenhouse Boardshop",
      "address": "203 College Ave., Blacksburg, VA 24060",
      "lat": 37.22988,
      "lng": -80.416296,
      "isIndependent": true,
      "website": "http://greenhouseboardshop.com",
      "phone": "(540) 552-3872"
    },
    {
      "id": 223,
      "name": "GRIMY SKATE CO LLC",
      "address": "4625 Lindell Blvd. suite 200 & 300, St. Louis, MO 63108",
      "lat": 38.643445,
      "lng": -90.260628,
      "isIndependent": true,
      "website": "http://www.grimyskate.co",
      "phone": "(800) 449-7252"
    },
    {
      "id": 548,
      "name": "Grindhouse Skate Co",
      "address": "7949 Broad River Rd. suite d, Irmo, SC 29063",
      "lat": 34.106873,
      "lng": -81.189902,
      "isIndependent": true,
      "website": "https://www.grindhouseskateco.com"
    },
    {
      "id": 13,
      "name": "GrindTime Skate Shop",
      "address": "90-20 Rockaway Beach Blvd., Far Rockaway, NY 11693",
      "lat": 40.586966,
      "lng": -73.814682,
      "isIndependent": true,
      "website": "http://grindtimesk8.com",
      "phone": "(646) 770-0525"
    },
    {
      "id": 666,
      "name": "Half Pipe Skate & Stuff",
      "address": "6037 Weber Rd., Corpus Christi, TX 78413",
      "lat": 27.707091,
      "lng": -97.408631,
      "isIndependent": true,
      "phone": "(361) 299-5998"
    },
    {
      "id": 624,
      "name": "Hamilton Skate Place",
      "address": "7414 Goodwin Rd., Chattanooga, TN 37421",
      "lat": 35.028907,
      "lng": -85.153502,
      "isIndependent": true,
      "website": "http://hamiltonskate.com",
      "phone": "(423) 899-1788"
    },
    {
      "id": 182,
      "name": "Hang Time Board Shop",
      "address": "2537 7th Ave. E, North St. Paul, MN 55109",
      "lat": 45.012204,
      "lng": -92.992686,
      "isIndependent": true,
      "website": "http://hangtimeboardshop.com",
      "phone": "(651) 330-5785"
    },
    {
      "id": 613,
      "name": "Hang Up Skate",
      "address": "609 N Seven Peaks Blvd. APT 19, Provo, UT 84606",
      "lat": 40.241955,
      "lng": -111.637171,
      "isIndependent": true,
      "phone": "(805) 443-5202"
    },
    {
      "id": 357,
      "name": "Hard Times Skate Shop",
      "address": "4361 Portsmouth Blvd., Portsmouth, VA 23701",
      "lat": 36.81565,
      "lng": -76.361256,
      "isIndependent": true,
      "website": "http://www.hardtimesskateshop.com",
      "phone": "(757) 966-5813"
    },
    {
      "id": 815,
      "name": "Harvester Skateboard Implement & Supply Co. (formerly Surfin Bird)",
      "address": "137 S Walter Ave., Appleton, WI 54915",
      "lat": 44.261214,
      "lng": -88.381341,
      "isIndependent": true,
      "phone": "(920) 997-4707"
    },
    {
      "id": 784,
      "name": "havoc clothing and skateshop",
      "address": "791 SE 6th St., Grants Pass, OR 97526",
      "lat": 42.433866,
      "lng": -123.329922,
      "isIndependent": true,
      "phone": "(541) 479-4846"
    },
    {
      "id": 700,
      "name": "Heartless Skate Shop",
      "address": "2468 Pass Rd., Biloxi, MS 39531",
      "lat": 30.401633,
      "lng": -88.980812,
      "isIndependent": true,
      "website": "https://www.facebook.com/share/1G7c7cR9Dm/?mibextid=wwXIfr",
      "phone": "(228) 341-1981"
    },
    {
      "id": 181,
      "name": "Help Boardshop and Indoor Skatepark",
      "address": "7399 Bush Lake Rd., Edina, MN 55439",
      "lat": 44.868415,
      "lng": -93.359231,
      "isIndependent": true,
      "website": "http://helpboardshop.jsaw.org",
      "phone": "(952) 217-4228"
    },
    {
      "id": 762,
      "name": "Hidden Wave Board Shop",
      "address": "896 S Burlington Blvd., Burlington, WA 98233",
      "lat": 48.468311,
      "lng": -122.335515,
      "isIndependent": true,
      "phone": "(360) 757-4998"
    },
    {
      "id": 86,
      "name": "High Five Skate Shop",
      "address": "315 Lincoln Rd., Miami Beach, FL 33139",
      "lat": 25.790854,
      "lng": -80.131235,
      "isIndependent": true,
      "website": "https://www.instagram.com/highfivesk8/",
      "phone": "(305) 531-6112"
    },
    {
      "id": 174,
      "name": "Highland Skate Shop",
      "address": "20109 Aurora Ave. N Suite 301 (upstairs, Shoreline, WA 98133",
      "lat": 47.77538,
      "lng": -122.346716,
      "isIndependent": true,
      "website": "https://www.highlandskateshop.com",
      "phone": "(206) 546-2431"
    },
    {
      "id": 365,
      "name": "Hive Skate Shop",
      "address": "139 Shaw St. Unit D, New London, CT 06320",
      "lat": 41.34537,
      "lng": -72.103071,
      "isIndependent": true,
      "website": "http://hiveskateshop.com",
      "phone": "(860) 442-4483"
    },
    {
      "id": 79,
      "name": "Hixsons Skate Lessons",
      "address": "2018 Wallace St., Philadelphia, PA 19130",
      "lat": 39.966265,
      "lng": -75.171252,
      "isIndependent": true,
      "phone": "(267) 969-4495"
    },
    {
      "id": 534,
      "name": "Holistic Skateshop",
      "address": "516 Penn Ave., West Reading, PA 19611",
      "lat": 40.335554,
      "lng": -75.948295,
      "isIndependent": true,
      "website": "http://holisticskateshop.com",
      "phone": "(484) 577-4183"
    },
    {
      "id": 306,
      "name": "Home Skateboard Shop",
      "address": "1363 Bardstown Rd., Louisville, KY 40204",
      "lat": 38.233874,
      "lng": -85.712527,
      "isIndependent": true,
      "website": "http://www.homeskateshop.com",
      "phone": "(502) 456-6911"
    },
    {
      "id": 533,
      "name": "Homebase Skateshop",
      "address": "29 W 4th St., Bethlehem, PA 18015",
      "lat": 40.610584,
      "lng": -75.379547,
      "isIndependent": true,
      "website": "https://www.homebase610.com",
      "phone": "(610) 866-0540"
    },
    {
      "id": 497,
      "name": "Homegrown Skateshop",
      "address": "104 E State St., Ithaca, NY 14850",
      "lat": 42.439679,
      "lng": -76.498759,
      "isIndependent": true,
      "website": "http://www.homegrownskateshop.com",
      "phone": "(607) 273-0430"
    },
    {
      "id": 640,
      "name": "Hometown Skates",
      "address": "2729 Bernville Rd., Leesport, PA 19533",
      "lat": 40.389329,
      "lng": -75.992061,
      "isIndependent": true,
      "website": "http://www.hometownskates.com",
      "phone": "(484) 671-2210"
    },
    {
      "id": 36,
      "name": "Homewood,IL Skate Shop",
      "address": "2026 Ridge Rd., Homewood, IL 60430",
      "lat": 41.561778,
      "lng": -87.666264,
      "isIndependent": true,
      "website": "https://www.thehomewoodskateshop.com",
      "phone": "(708) 799-0420"
    },
    {
      "id": 387,
      "name": "Hooch Skateboards",
      "address": "145 Shore Rush Dr., St. Simons Island, GA 31522",
      "lat": 31.189187,
      "lng": -81.366803,
      "isIndependent": true,
      "website": "https://www.hoochskateboards.com",
      "phone": "(404) 884-1104"
    },
    {
      "id": 358,
      "name": "Hotline Surfboards",
      "address": "437 Virginia Beach Blvd., Virginia Beach, VA 23451",
      "lat": 36.844215,
      "lng": -75.9789,
      "isIndependent": true,
      "website": "https://hotlinesurfboards.com",
      "phone": "(757) 630-6463"
    },
    {
      "id": 53,
      "name": "Houston Skate & Sports Orthotics Center",
      "address": "11231 Richmond Ave. d102, Houston, TX 77082",
      "lat": 29.726938,
      "lng": -95.574732,
      "isIndependent": true,
      "website": "http://www.houstonskatesports.com",
      "phone": "(832) 778-8799"
    },
    {
      "id": 49,
      "name": "Houston Skateboards",
      "address": "401 Franklin St., Houston, TX 77201",
      "lat": 29.766215,
      "lng": -95.364884,
      "isIndependent": true,
      "website": "http://www.houstonskateboards.com",
      "phone": "(713) 387-9664"
    },
    {
      "id": 7,
      "name": "Hudson Skate Shop",
      "address": "7317 Broadway, North Bergen, NJ 07047",
      "lat": 40.795809,
      "lng": -74.00402,
      "isIndependent": true,
      "website": "http://www.hudsonskateshop.com",
      "phone": "(845) 553-2831"
    },
    {
      "id": 768,
      "name": "Huli Boardshop",
      "address": "5778 2nd Ave. suite 101, Ferndale, WA 98248",
      "lat": 48.851136,
      "lng": -122.589568,
      "isIndependent": true,
      "website": "https://hulibrand.com",
      "phone": "(360) 392-0875"
    },
    {
      "id": 789,
      "name": "Humboldt Skate Lab",
      "address": "617 3rd St., Eureka, CA 95501",
      "lat": 40.803938,
      "lng": -124.164868,
      "isIndependent": true,
      "phone": "(707) 798-1258"
    },
    {
      "id": 415,
      "name": "Humidity Skate Shop",
      "address": "515 Dumaine St., New Orleans, LA 70116",
      "lat": 29.958613,
      "lng": -90.061642,
      "isIndependent": true,
      "website": "https://www.humiditynola.com",
      "phone": "(504) 529-6822"
    },
    {
      "id": 517,
      "name": "Icon Boardshop",
      "address": "2501 Saviers Rd., Oxnard, CA 93033",
      "lat": 34.175976,
      "lng": -119.179064,
      "isIndependent": true,
      "website": "http://www.iconboardshop.com",
      "phone": "(805) 240-0771"
    },
    {
      "id": 782,
      "name": "Idea Board Shop",
      "address": "1110 N Miller St., Wenatchee, WA 98801",
      "lat": 47.437348,
      "lng": -120.325106,
      "isIndependent": true,
      "website": "http://www.ideaboardshop.net",
      "phone": "(509) 888-2504"
    },
    {
      "id": 361,
      "name": "Ideal Skate Shop",
      "address": "175 Central Ave., Norwich, CT 06360",
      "lat": 41.532252,
      "lng": -72.057218,
      "isIndependent": true,
      "website": "http://www.instagram.com/idealskateshopnorwich",
      "phone": "(860) 334-5277"
    },
    {
      "id": 112,
      "name": "Igloo Skates",
      "address": "2176 Mendon Rd. Suite 4000, Cumberland, RI 02864",
      "lat": 41.953282,
      "lng": -71.443389,
      "isIndependent": true,
      "website": "http://www.iglooskates.com",
      "phone": "(401) 335-5045"
    },
    {
      "id": 538,
      "name": "Ignition Skateshop",
      "address": "420 W Grant St., Lancaster, PA 17603",
      "lat": 40.037769,
      "lng": -76.313657,
      "isIndependent": true,
      "website": "http://www.ignitionskates.com"
    },
    {
      "id": 499,
      "name": "Impact Skate",
      "address": "1809 Chester Ave., Bakersfield, CA 93301",
      "lat": 35.3756,
      "lng": -119.019217,
      "isIndependent": true,
      "website": "http://www.impactskateshop.com",
      "phone": "(661) 479-7094"
    },
    {
      "id": 481,
      "name": "Indi Surf Skate",
      "address": "486 Plandome Rd., Manhasset, NY 11030",
      "lat": 40.799235,
      "lng": -73.700145,
      "isIndependent": true,
      "website": "https://indisurf.com",
      "phone": "(516) 627-9220"
    },
    {
      "id": 216,
      "name": "Infinity Skate Shop",
      "address": "5528 S Lindbergh Blvd., St. Louis, MO 63123",
      "lat": 38.524507,
      "lng": -90.355674,
      "isIndependent": true,
      "website": "http://www.infinityskateshop.com",
      "phone": "(314) 843-1989"
    },
    {
      "id": 769,
      "name": "Influence Board Shop",
      "address": "3954 Quadra St., Victoria, BC V8X 1J6, Canada",
      "lat": 48.467217,
      "lng": -123.362655,
      "isIndependent": true,
      "website": "https://influenceboardshop.com",
      "phone": "(778) 440-5050"
    },
    {
      "id": 486,
      "name": "Initiate Skateboarding",
      "address": "2882 Trades West Rd. Unit A2, Santa Fe, NM 87507",
      "lat": 35.660727,
      "lng": -105.992435,
      "isIndependent": true,
      "website": "http://initiateskateboarding.com",
      "phone": "(505) 490-8226"
    },
    {
      "id": 15,
      "name": "INNERCITY SKATESHOP",
      "address": "3532 N Broadway, Los Angeles, CA 90031",
      "lat": 34.073631,
      "lng": -118.202748,
      "isIndependent": true,
      "website": "http://www.innercityskate.com",
      "phone": "(323) 352-3355"
    },
    {
      "id": 672,
      "name": "Innerlight Surf & Skate",
      "address": "40 S Palafox St., Pensacola, FL 32502",
      "lat": 30.41153,
      "lng": -87.214914,
      "isIndependent": true,
      "website": "http://www.innerlightsurf.com",
      "phone": "(850) 495-3507"
    },
    {
      "id": 676,
      "name": "Innerlight Surf & Skate",
      "address": "203 Gulf Breeze Pkwy, Gulf Breeze, FL 32561",
      "lat": 30.366649,
      "lng": -87.171807,
      "isIndependent": true,
      "website": "http://www.innerlightsurf.com",
      "phone": "(850) 932-5134"
    },
    {
      "id": 679,
      "name": "Innerlight Surf & Skate",
      "address": "4124 Legendary Dr. Suite A108, Destin, FL 32541",
      "lat": 30.392305,
      "lng": -86.424672,
      "isIndependent": true,
      "website": "https://www.innerlightsurf.com",
      "phone": "(850) 650-5509"
    },
    {
      "id": 252,
      "name": "Insanity Boardshop",
      "address": "6565 Babcock Rd. #2, San Antonio, TX 78249",
      "lat": 29.556614,
      "lng": -98.614372,
      "isIndependent": true,
      "website": "http://www.insanitybs.com",
      "phone": "(210) 332-5675"
    },
    {
      "id": 866,
      "name": "Interskate 88",
      "address": "5185 NY-23, Oneonta, NY 13820",
      "lat": 42.448288,
      "lng": -75.029816,
      "isIndependent": true,
      "website": "https://www.interskate88.com",
      "phone": "(607) 432-0366"
    },
    {
      "id": 498,
      "name": "Intuition Skate Shop",
      "address": "1020 19th St., Bakersfield, CA 93301",
      "lat": 35.376496,
      "lng": -119.013599,
      "isIndependent": true,
      "website": "http://www.intuitionskate.com",
      "phone": "(310) 334-9987"
    },